Id,Name,Number,StreetAddress,City,Province,PostalCode,Latitude,Longitude,Phone,Website,Hours,SupplierType,Email,MondayOpen,MondayClose,TuesdayOpen,TuesdayClose,WednesdayOpen,WednesdayClose,ThursdayOpen,ThursdayClose,FridayOpen,FridayClose,SaturdayOpen,SaturdayClose,SundayOpen,SundayClose,Description,Facebook,Twitter,Instagram,PaymentMethods,LicenseeSales,SpecialEventsOrdering,OnSiteSpecialEvents,OnSiteKitchen,KegSales,SommelierOnStaff,OnlineOrdering,SpecialOrdering,DeliveryService,GrowlerFill,Theme,HeroTitle,HeroDescription,DisplayInventory,ALSAMember,AHLAMember,EstablishmentType
49925,RIVER'S LIQUOR STORE                    ,76763700,8006 99 AVENUE                          ,PEACE RIVER                                       ,AB,T8S 1R2   ,56.234672,-117.333089,(780) 624-8805  ,,,Liquor Store,benjgie@hotmail.com                     ,,,,,,,,,,,,,,,,,,,,False,False,False,False,False,False,False,False,False,,,,,,False,False,Liquor Store
49929,NORTHLANDS LIQUOR STORE                 ,76764800,20 NORTHLANDS WAY NE                    ,MEDICINE HAT                                      ,AB,T1C 1Z2   ,50.063553,-110.685549,(403) 580-5264  ,,,Liquor Store,c.drescher@sccoop.ca                    ,10:00AM,10:00PM,10:00AM,10:00PM,10:00AM,10:00PM,10:00AM,10:00PM,10:00AM,10:00PM,10:00AM,10:00PM,11:00AM,7:00PM,,,,,"AMEX, Debit, MasterCard, Visa",True,True,False,False,True,False,False,False,False,,,,,,False,False,Liquor Store
49931,CRESTWOOD FINE WINES & SPIRITS          ,76767400,9658 142 STREET NW                      ,EDMONTON                                          ,AB,T5N 4B2   ,53.534339,-113.567005,(780) 488-7800  ,,,Liquor Store,                                        ,10:00AM,8:00PM,10:00AM,8:00PM,10:00AM,8:00PM,10:00AM,8:00PM,10:00AM,9:00PM,10:00AM,9:00PM,11:00AM,6:00PM,,,,,"AMEX, Debit, MasterCard, Visa",False,False,False,False,False,False,False,False,False,,,,,,True,False,Liquor Store
49933,ECONO LIQUOR STORE                      ,76768600,405 11 AVENUE                           ,NISKU                                             ,AB,T9E 7N2   ,53.30949,-113.533715,(780) 955-8644  ,,,Liquor Store,anita.r.narula@gmail.com                ,10:00am,12:00am,10:00am,12:00am,10:00am,12:00am,10:00am,12:00am,10:00am,12:00am,10:00am,12:00am,10:00am,10pm,,,,,,True,True,True,True,True,True,True,True,True,True,,,,,False,False,Liquor Store
49936,ZYN AT BANKERS HALL                     ,76770400,145-315 8 AVENUE SW                     ,CALGARY                                           ,AB,T2P 4K1   ,51.045257,-114.069167,(403) 263-3519  ,Visit zyn.ca ... AmaZYN Prices ... AmaZYN Products ... Save Time ... Shop Online,,Liquor Store,tara@zyn.ca                             ,10:00am,6:00pm,10:00am,6:00pm,10:00am,6:00pm,10:00am,6:00pm,10:00am,6:00pm,,,,,,,,,,False,False,False,False,False,False,False,False,True,False,,,,,False,False,Liquor Store
49937,COSTCO CANADA LIQUOR                    ,76771100,2352 BOX SPRINGS BOULEVARD NW           ,MEDICINE HAT                                      ,AB,T1C 0C8   ,50.06451,-110.74264,(403) 580-2162  ,,,Liquor Store,                                        ,,,,,,,,,,,,,,,,,,,,False,False,False,False,False,False,False,False,False,,,,,,False,False,Liquor Store
49938,THORHILD LIQUOR MART                    ,76771800,802 2 STREET                            ,THORHILD                                          ,AB,T0A 3J0   ,54.161146,-113.126289,(780) 777-1666  ,,,Liquor Store,d7771666@gmail.com                      ,9:00am,10:00pm,9:00am,10:00pm,9:00am,10:00pm,9:00am,10:00pm,9:00am,11:00pm,9:00am,11:00pm,9.00am,9:00pm,,,,,,False,True,False,False,False,False,False,False,False,False,,,,,False,False,Liquor Store
49941,LIQUOR LODGE                            ,76773200,405A PATRICIA STREET                    ,JASPER                                            ,AB,T0E 1E0   ,52.878844,-118.080294,(780) 852-2337  ,,,Liquor Store,marc@liquorlodge.ca                     ,,,,,,,,,,,,,,,,,,,,False,False,False,False,False,False,False,False,False,,,,,,True,False,Liquor Store
49951,SKYWAY LIQUOR STORE CONCOURSE C         ,76781400,DEPARTURES                              ,CALGARY                                           ,AB,T2E 6W5   ,51.131383,-114.010982,(403) 532-1848  ,,,Liquor Store,cloud9a@wciltd.ca                       ,,,,,,,,,,,,,,,,,,,,False,False,False,False,False,False,False,False,False,,,,,,False,False,Liquor Store
49952,BLUE ON WHYTE LIQUOR                    ,76781600,10058 82 AVENUE NW                      ,EDMONTON                                          ,AB,T6E 1Z3   ,53.518452,-113.490542,(780) 757-1289  ,,,Liquor Store,blueonwhyte@hotmail.com                 ,10:00,2,10:00am,2,10,2,10,2,10,2,10,2,10,2,,,,,,False,False,False,False,False,False,False,False,False,False,,,,,False,False,Liquor Store
49953,VINESTONE WINE CO.                      ,76785100,608 2 STREET W                          ,COCHRANE                                          ,AB,T4C 1Z7   ,51.193014,-114.472196,(403) 981-9463  ,vinestonewine.com,,Liquor Store,adam@vinestonewine.com                  ,Closed,,10:00am,8:00pm,10:00am,8:00pm,10:00am,8:00pm,10:00am,8:00pm,10:00am,6:00pm,12:00pm,5:00pm,"Vinestone Wine Co. is your locally owned peddler of all things delicious. We love wine, craft beer, and spirits, and work hard to find the best bottles made by families, not factories.

It pops our cork to introduce people of all interest levels, to unique and interesting wines, beer, and spirits, either through our tasting bar or through our tasting events.

Handcrafted wines, naturally made when possible, is the name of the game. Our well-educated staff is sure to find something new and unique to suit your tastes.

We believe that wine and the process of shopping for it should be comfortable and accessible.

Our shop provides a unique selection of constantly rotating selections, expert knowledge, and impassioned customer service.",,,,,True,True,True,False,True,True,False,False,False,True,,,,,False,False,Liquor Store
49958,SOBEYS LIQUOR (BEAUMONT)                ,76794400,6100 50 STREET                          ,BEAUMONT                                          ,AB,T4X 1T8   ,53.36227,-113.415864,(780) 929-0164  ,,,Liquor Store,swcb3067beaumont@sobeys.com             ,,,,,,,,,,,,,,,,,,,,False,False,False,False,False,False,False,False,False,,,,,,True,False,Liquor Store
49961,ACE LIQUOR DISCOUNTER AT EAUX CLAIRES   ,76796200,9615 160 AVENUE NW                      ,EDMONTON                                          ,AB,T5Z 3H3   ,53.620974,-113.489851,(780) 475-2190  ,,,Liquor Store,1010580store@liquordepot.ca             ,10:00am,10:00pm,10:00am,10:00pm,10:00am,10:00pm,10:00am,10:00pm,10:00am,10:00pm,10:00am,10:00Pm,10:00am,10:00pm,,,,,,False,True,False,False,True,False,True,True,True,False,,,,,True,False,Liquor Store
49964,LIQUOR BAY                              ,76797800,9032 75 STREET NW                       ,EDMONTON                                          ,AB,T6C 2H4   ,53.525645,-113.443006,(780) 440-0299  ,,,Liquor Store,b-verma@hotmail.com                     ,10:00am,12:00am,10:00am,12:00am,10:00am,12:00am,10:00am,12:00am,10:00am,1:00am,10:00am,1:00am,10:00am,11:00pm,,,,,,True,False,False,False,False,False,False,False,False,False,,,,,False,False,Liquor Store
49965,REAL CANADIAN LIQUOR STORE              ,76799800,5031 44 STREET                          ,LLOYDMINSTER                                      ,AB,T9V 0A6   ,53.276055,-110.008438,(780) 871-8004  ,,,Liquor Store,mon01671@loblaw.ca                      ,10.00,11:00pm,10.00,11.00pm,10.00,11.00pm,10.00,11.00pm,10.00,11.00pm,10.00,11.00pm,10.00,08.00pm,,,,,,False,False,False,False,False,False,False,False,False,False,,,,,True,False,Liquor Store
49966,R & M LIQUOR STORE                      ,76802800,5040 49 AVENUE                          ,REDWATER                                          ,AB,T0A 2W0   ,53.94993,-113.111874,(780) 942-3622  ,,,Liquor Store,Rmliquor@yahoo.ca                       ,,,,,,,,,,,,,,,,,,,"Debit, MasterCard, Visa",False,False,False,False,False,False,False,False,False,False,,,,,False,False,Liquor Store
49967,COSTLESS LIQUOR STORE                   ,76803100,A-5023 47 AVENUE                        ,TWO HILLS                                         ,AB,T0B 4K0   ,53.709429,-111.746235,(780) 657-0022  ,,,Liquor Store,                                        ,,,,,,,,,,,,,,,,,,,,False,False,False,False,False,False,False,False,False,,,,,,False,False,Liquor Store
49968,LIQUOR DEPOT AT EASTVIEW                ,76804400,3809 40 AVENUE                          ,RED DEER                                          ,AB,T4N 2W4   ,52.258209,-113.789716,(403) 340-8988  ,,,Liquor Store,                                        ,,,,,,,,,,,,,,,,,,,,False,False,False,False,False,False,False,False,False,,,,,,True,False,Liquor Store
49972,WILD ROSE LIQUOR                        ,76807700,10680 156 STREET NW                     ,EDMONTON                                          ,AB,T5P 2R9   ,53.55092,-113.590877,(780) 444-3231  ,,,Liquor Store,wildroseliquor@yahoo.com                ,,,,,,,,,,,,,,,,,,,,False,False,False,False,False,False,False,False,False,,,,,,False,False,Liquor Store
49975,CALGARY CO-OP LIQUOR STORE - KINGSLAND  ,76810600,6907 MACLEOD TRAIL SW                   ,CALGARY                                           ,AB,T2H 0L6   ,50.991591,-114.072861,(403) 252-2447  ,,,Liquor Store,                                        ,10:00AM,10:00PM,10:00AM,10:00PM,10:00AM,10:00PM,10:00AM,10:00PM,10:00AM,10:00PM,10:00AM,10:00PM,10:00AM,10:00pm,,,,,"AMEX, Debit, MasterCard, Visa",True,True,False,False,True,False,True,False,False,False,,,,,True,False,Liquor Store
49976,OLYMPIA LIQUOR STORE                    ,76812100,1915A CENTRE STREET NW                  ,CALGARY                                           ,AB,T2E 2S7   ,51.069367,-114.063078,(403) 452-7300  ,www.olympialiquor.ca,,Liquor Store,ravi10665@yahoo.ca                      ,10:00am,10:00pm,10:00am,10:00pm,10:00am,10:00pm,10:00am,10:00pm,10:00am,11:00pm,10:00am,11:00pm,10:00am,10:00pm,,,,,,True,True,False,False,True,False,False,False,False,False,,,,,True,False,Liquor Store
49977,LIQUOR WAY                              ,76813700,9444 149 STREET NW                      ,EDMONTON                                          ,AB,T5R 1C6   ,53.53125,-113.578665,(587) 523-5929  ,,,Liquor Store,parhar72@telus.net                      ,11:00AM,10:00PM,11:00AM,10:00PM,10:00AM,10:00PM,10:00AM,11:00PM,10:00AM,,10:00AM,,10:00AM,10:00PM,,,,,"AMEX, Debit, MasterCard, Visa",False,False,False,False,False,False,False,False,False,,,,,,False,False,Liquor Store
49981,SONNY'S COLD BEER & LIQUOR STORE        ,76815600,5411 50 AVENUE                          ,BONNYVILLE                                        ,AB,T9N 1Z7   ,54.268265,-110.752811,(780) 826-2230  ,,,Liquor Store,sonnyscoldbeer@hotmail.com              ,10:00am,10:00pm,10:00am,10:00pm,10:00am,10:00pm,10:00am,11:00pm,10:00am,11:00pm,10:00am,11:00pm,10:00am,9:00pm,,,,,,False,False,False,False,False,False,False,False,False,True,,,,,True,False,Liquor Store
49988,EC WINES & SPIRITS                      ,76821700,9921 170 STREET NW                      ,EDMONTON                                          ,AB,T5P 4S2   ,53.537984,-113.614073,(780) 487-8704  ,,,Liquor Store,Sahota.harpal@yahoo.ca                  ,,,,,,,12:30PM,,12:39PM,,,,12:30PM,2:00AM,,,,,"Debit, MasterCard, Visa",False,False,False,False,False,False,False,False,False,,,,,,False,False,Liquor Store
49992,IMPERIAL LIQUOR                         ,76824900,105 ATHABASCA AVENUE                    ,HINTON                                            ,AB,T7V 2A4   ,53.424808,-117.542516,(780) 865-3633  ,,,Liquor Store,                                        ,,,,,,,,,,,,,,,,,,,,False,False,False,False,False,False,False,False,False,False,,,,,False,False,Liquor Store
49993,BEER LOCKER                             ,76826600,4717 20 AVENUE                          ,DRAYTON VALLEY                                    ,AB,T0E 0M0   ,53.193227,-114.976392,(780) 542-7527  ,,,Liquor Store,ctpatten@hotmail.com                    ,,,,,,,,,,,,,,,,,,,,False,False,False,False,False,False,False,False,False,,,,,,False,False,Liquor Store
49997,CRYSTAL RIDGE LIQUOR STORE              ,76830300,7-55 WHEATLAND TRAIL                    ,STRATHMORE                                        ,AB,T1P 1R7   ,51.05908,-113.399022,(403) 901-1600  ,,,Liquor Store,crystalridge@crowfootliquor.com         ,10:00am,9:00pm,10:00am,9:00pm,10:00am,9:00pm,10:00am,10:00pm,10:00am,10:00pm,10:00am,10:00pm,10:00am,9:00pm,,,,,"AMEX, Debit, MasterCard, Visa, cash",False,True,False,False,True,False,False,True,False,False,,,,,True,False,Liquor Store
49998,GRANDE CACHE LIQUOR                     ,76831500,10002 HOPPE AVENUE                      ,GRANDE CACHE                                      ,AB,T0E 0Y0   ,53.887064,-119.119575,(780) 827-3668  ,,,Liquor Store,grandecacheliquor@outlook.com           ,10:00am,11:00pm,10:00am,11:00pm,10:00am,11:00pm,10:00am,11:00pm,10:00am,12:00am,10:00am,12:00am,11:00am,10:00pm,,,,,,False,False,False,False,False,False,False,False,False,False,,,,,False,False,Liquor Store
50000,VULCAN LIQUOR STORE                     ,76834700,124 1 STREET S                          ,VULCAN                                            ,AB,T0L 2B0   ,50.403528,-113.260906,(403) 485-2366  ,,,Liquor Store,dfoyle@telus.net                        ,,,,,,,,,,,,,,,,,,,,False,False,False,False,False,False,False,False,False,,,,,,False,False,Liquor Store
50001,LIQUOR ON 96                            ,76836500,10164 96 STREET NW                      ,EDMONTON                                          ,AB,T5H 3V2   ,53.544398,-113.482898,(780) 702-0410  ,,,Liquor Store,Liquoron96@gmail.com                    ,10:00am,11:00pm,10:00am,11:00pm,10:00am,11:00pm,10:00am,11:00pm,10:00am,12:00am,10:00am,12:00am,10:00am,10:00pm,,,,,,True,True,True,False,True,False,False,False,False,False,,,,,False,False,Liquor Store
50011,VINTAGE WINE & SPIRITS                  ,76842900,101-8716 108 STREET                     ,GRANDE PRAIRIE                                    ,AB,T8V 4C7   ,55.159076,-118.821479,(780) 830-2334  ,vintagewineandspirits.ca,,Liquor Store,vwsfan@telus.net                        ,10:00am,8:00pm,10:00am,8:00pm,10:00am,8:00pm,10:00am,8:00pm,10:00am,8:00pm,10:00am,8:00pm,11:00am,5:45pm,,,,,debt- visa-M/C- am/x -cash,True,True,True,False,False,False,False,True,False,False,,,,,False,False,Liquor Store
50016,SOBEYS LIQUOR (SYLVAN LAKE)             ,76846400,SYLVAN LAKE                             ,SYLVAN LAKE                                       ,AB,T4S 0C8   ,52.303943,-114.076013,(403) 887-0862  ,..,,Liquor Store,swcb5403sylvanlake@sobeys.com           ,10:00am,10:00pm,10:00am,10:00pm,10:00am,10:00pm,10:00am,11:00pm,10:00am,11:00pm,10:00am,11:00pm,10:00am,10:00pm,..,..,..,,.,False,True,False,False,True,False,False,True,False,False,,,,,True,False,Liquor Store
50023,NORWOOD LIQUOR STORE                    ,76854000,9608 118 AVENUE NW                      ,EDMONTON                                          ,AB,T5G 0P2   ,53.570761,-113.490849,(780) 479-2884  ,,,Liquor Store,ayaz@morethancigars.com                 ,10:00am,11:00pm,10:00am,11:00pm,10:00am,11:00pm,10:00am,11:00pm,10:00am,12:00am,10:00am,12:00am,10:00am,10:00pm,,,,,,False,True,False,False,False,False,False,True,False,False,,,,,True,False,Liquor Store
50037,MILLET LIQUOR STORE 'N' MORE            ,76862000,5018 50 STREET                          ,MILLET                                            ,AB,T0C 1Z0   ,53.096102,-113.472502,(780) 387-2222  ,,,Liquor Store,Milletliquorstorenmore@hotmail.com      ,,,,,,,,,,,,,,,,,,,"Debit, MasterCard, Visa",False,False,False,False,False,False,False,False,False,,,,,,False,False,Liquor Store
50042,CHEERIO LIQUOR STORE                    ,76869600,10138 111 AVENUE NW                     ,EDMONTON                                          ,AB,T5G 0B3   ,53.559323,-113.495239,(780) 415-5028  ,,,Liquor Store,cheerioliquors@gmail.com                ,10:00am,1:30am,10:00am,1:30am,10:00am,1:30am,10:00am,2:00am,10:00am,2:00am,10:00am,2:00am,10:00am,1:30am,"Alcohol, Beers, Wines and others",,,,"Cash, Master Card, Visa Crad & Direct Payment",False,True,False,False,False,False,False,True,False,False,,,,,True,False,Liquor Store
50046,YE OLDE GIBBONS LIQUOR STORE            ,76870400,4620 50 AVENUE                          ,GIBBONS                                           ,AB,T0A 1N0   ,53.827983,-113.324093,(780) 923-3474  ,,,Liquor Store,                                        ,10,11p,10,11p,10,11p,10,1p,10,12a,10,12a,10,11p,,,,,,False,False,False,False,False,False,False,False,False,False,,,,,True,False,Liquor Store
50047,ANDERSONS LIQUOR                        ,76870500,3-102 ERIE STREET                       ,DEVON                                             ,AB,T9G 2J4   ,53.359343,-113.728678,(780) 987-5411  ,,,Liquor Store,                                        ,10,11p,10,11p,10,11p,10,11p,10,12a,10,12a,10,11p,,,,,,False,False,False,False,False,False,False,False,False,False,,,,,True,False,Liquor Store
50048,WHISKEY STORE                           ,76870700,4808 50 STREET                          ,ATHABASCA                                         ,AB,T9S 1C9   ,54.718409,-113.285425,(780) 675-1154  ,,,Liquor Store,                                        ,10,11p,10,11p,10,11p,10,11p,10,12a,10,12a,10,11p,,,,,,False,False,False,False,False,False,False,False,False,False,,,,,True,False,Liquor Store
50049,GREAT CANADIAN LIQUOR                   ,76870900,5117 50 STREET                          ,WETASKIWIN                                        ,AB,T9A 1K1   ,52.971124,-113.373203,(780) 352-7497  ,,,Liquor Store,                                        ,10,11p,10,11p,10,11p,10,11p,10,12a,10,12a,10,11p,,,,,,False,False,False,False,False,False,False,False,False,False,,,,,True,False,Liquor Store
50050,BOTTOMS UP COLD BEER & LIQUOR STORE     ,76871200,4413 50 STREET                          ,SYLVAN LAKE                                       ,AB,T4S 1J9   ,52.30045,-114.096952,(403) 887-2188  ,,,Liquor Store,rmlcustomers@gmail.com                  ,10:00am,11:00pm,10:00am,11:00pm,10:00am,11:00pm,10:00am,11:00pm,10:00am,12:00am,10:00am,12:00am,10:00am,11:00pm,,,,,"MC, VISA, AMEX, Cash, Debit",True,True,False,False,False,False,True,True,True,False,,,,,True,False,Liquor Store
50051,GREAT CANADIAN LIQUOR                   ,76871300,10-5004 46 STREET                       ,SYLVAN LAKE                                       ,AB,T4S 1C2   ,52.309942,-114.092558,(403) 887-3581  ,,,Liquor Store,                                        ,10,11p,10,11p,10,11p,10,1p,10,12a,10,12a,10,11p,,,,,,False,False,False,False,False,False,False,False,False,False,,,,,True,False,Liquor Store
50052,GREAT CANADIAN LIQUOR                   ,76871500,9513 100 STREET                         ,MORINVILLE                                        ,AB,T8R 1R2   ,53.795926,-113.644396,(780) 939-4203  ,,,Liquor Store,                                        ,10,11p,10,11p,10,11p,10,11p,10,12a,10,12a,10,11p,,,,,,False,False,False,False,False,False,False,False,False,False,,,,,True,False,Liquor Store
50053,GREAT CANADIAN LIQUOR                   ,76871700,10012 103 STREET                        ,MORINVILLE                                        ,AB,T8R 1R7   ,53.802588,-113.651777,(780) 939-4743  ,,,Liquor Store,                                        ,10:00am,11:00pm,10:00am,11:00pm,10:00am,11:00pm,10,11:00pm,10,12:00am,10,12:00am,10,11:00pm,,,,,,False,True,False,False,True,False,False,True,False,False,,,,,True,False,Liquor Store
50055,S & S LIQUOR #2                         ,76872400,404-3 STONEGATE DRIVE NW                ,AIRDRIE                                           ,AB,T4B 0N2   ,51.300835,-114.013858,(403) 912-1178  ,,,Liquor Store,sarbjit.gill57@gmail.com                ,10:00am,2:00am,10:00am,2:00am,10:00am,2:00am,10:00am,2:00am,10:00am,2:00am,10:00am,2:00am,10:00am,2:00am,,,,,,False,False,False,False,False,False,False,False,True,False,,,,,False,False,Liquor Store
50057,A FLIGHT OF WINES AND SPIRITS           ,76875800,Gate 50/52 After security at ED Airport ,EDMONTON INTERNATIONAL AIRPORT                    ,AB,T9E 0V3   ,53.307042,-113.584372,(780) 890-7288  ,,,Liquor Store,aflightofwine@gmail.com                 ,10:00am,6:00pm,10:00am,6:00pm,10:00am,6:00pm,10:00am,6:00pm,10:00am,6:00pm,10:00am,4:00pm,10:00am,4:00pm,Airport Curb Side Pick Up for Non - Passengers Available.,,,,,False,False,False,False,False,False,False,False,False,False,,,,,False,False,Liquor Store
50058,HINTON LIQUOR STORE                     ,76876300,125 JASPER STREET                       ,HINTON                                            ,AB,T7V 2A8   ,53.39872,-117.591245,(780) 865-2616  ,,,Liquor Store,sdal56@hanmail.net                      ,10:00AM,11:00PM,10:00AM,11:00PM,10:00AM,11:00PM,10:00AM,11:00PM,10:00AM,11:30PM,10:00AM,11:00PM,10:00AM,10:00PM,,,,,"Debit, MasterCard, Visa",True,True,False,False,False,False,False,False,False,,,,,,True,False,Liquor Store
50062,GREAT CANADIAN LIQUOR COMPANY           ,76880700,4515 47 AVENUE                          ,ROCKY MOUNTAIN HOUSE                              ,AB,T4T 1C5   ,52.370045,-114.911279,(403) 847-1011  ,,,Liquor Store,                                        ,10,11p,10,11p,10,11p,10,11p,10,12a,10,12a,10,11p,,,,,,False,False,False,False,False,False,False,False,False,False,,,,,True,False,Liquor Store
50064,GREAT CANADIAN LIQUOR                   ,76880900,542 24 STREET                           ,FORT MACLEOD                                      ,AB,T0L 0Z0   ,49.725298,-113.398691,(403) 553-4877  ,,,Liquor Store,                                        ,,,,,,,,,,,,,,,,,,,,False,False,False,False,False,False,False,False,False,,,,,,True,False,Liquor Store
50066,LAKEWAY LIQUOR                          ,76882300,4-117 LAKEWAY BOULEVARD                 ,SYLVAN LAKE                                       ,AB,T4S 0A9   ,52.29051,-114.1124,(403) 887-1500  ,,,Liquor Store,                                        ,,,,,,,,,,,,,,,,,,,,False,False,False,False,False,False,False,False,False,,,,,,False,False,Liquor Store
50074,ATHABASCA LIQUOR STORE                  ,76891300,4710 50 AVENUE                          ,ATHABASCA                                         ,AB,T9S 1C1   ,54.720908,-113.28235,(780) 675-2163  ,,,Liquor Store,                                        ,10:00am,10:00pm,10:00am,10:00pm,10:00am,11:00pm,10:00pm,11:00pm,10:00am,12:00am,10:00am,12:00am,10:00am,10:00pm,,,,,,False,True,False,False,True,False,False,True,False,False,,,,,True,False,Liquor Store
50083,SOBEYS LIQUOR (HOLLICK KENYON)          ,76903300,5215 167 AVENUE NW                      ,EDMONTON                                          ,AB,T5Y 0L2   ,53.628009,-113.415672,(780) 472-0834  ,,,Liquor Store,                                        ,,,,,,,,,,,,,,,,,,,,False,False,False,False,False,False,False,False,False,,Theme 1,,,False,True,False,Liquor Store
50088,PENBROOKE LIQUOR                        ,76908100,3A-5320 8 AVENUE SE                     ,CALGARY                                           ,AB,T2A 3P5   ,51.045553,-113.957328,(403) 272-1800  ,www.penbrookeliquor.com,,Liquor Store,mainulchaudry@gmail.com                 ,10:00am,1:00am,1:00am,1:00am,10:00am,1:00am,10:00am,1:00am,10:00am,1:00am,10:00am,1:00am,10:00am,12:00am,,,,,"cash, debit ,visa, master card",True,True,False,False,True,False,False,True,True,True,,,,,False,False,Liquor Store
50090,COWBOY TRAIL LIQUOR STORE               ,76909100,103 MAIN AVENUE E                       ,SUNDRE                                            ,AB,T0M 1X0   ,51.79658,-114.638723,(403) 638-9881  ,,,Liquor Store,cowboytrailsundre@yahoo.ca              ,10:00am,8:00pm,10:00am,8:00pm,10:00am,8:00pm,10:00am,8:00pm,10:00am,10:00pm,10:00am,10:00pm,10:00am,6:00pm,,,,,,False,False,False,False,False,False,False,False,False,False,,,,,True,False,Liquor Store
50091,CORKE'S AND CAPS                        ,76911400,5005 45 AVENUE                          ,MAYERTHORPE                                       ,AB,T0E 1N0   ,53.949073,-115.138081,(780) 786-0101  ,,,Liquor Store,cruiser5@xplornet.com                   ,,,,,,,,,,,,,,,,,,,"Debit, MasterCard, Visa",True,True,False,False,True,False,False,True,False,,,,,,False,False,Liquor Store
50092,EVEREST LIQUOR                          ,76911700,3-905 1 AVENUE NW                       ,AIRDRIE                                           ,AB,T4B 2X7   ,51.292309,-114.026209,(403) 912-7844  ,,,Liquor Store,everestwines@yahoo.com                  ,10:00am,12:00am,10:00am,12:00am,10:00am,12:00am,10:00am,12:00am,10:00am,1:00am,10:00am,1:00am,10:00am,12:00am,,,,,"AMEX, Debit, MasterCard, Visa",False,False,False,False,False,False,False,True,True,False,,,,,False,False,Liquor Store
50093,LIQUORIAN LIQUOR CELLAR                 ,76913100,319 ARENA AVENUE                        ,TROCHU                                            ,AB,T0M 2C0   ,51.826813,-113.228232,(403) 442-2198  ,,,Liquor Store,hjongkwon@gmail.com                     ,10:00am,9:00pm,10:00am,9:00pm,10:00am,9:00pm,10:00am,9:00pm,10:00am,9:30pm,10:00am,9:30pm,12:00pm,8:00pm,,,,,,True,True,False,False,True,False,False,False,False,False,,,,,False,False,Liquor Store
50094,RUM RUNNERS LIQUOR STORE LTD.           ,76914200,5820 51 STREET                          ,GRIMSHAW                                          ,AB,T0H 1W0   ,56.196324,-117.609555,(780) 332-2299  ,http://rumrunnersliquorstore.blogspot.com/,,Liquor Store,rumrunners@live.com                     ,10:00AM,10:00PM,10:00AM,10:00PM,10:00AM,10:00PM,10:00AM,10:00PM,10:00AM,10:00PM,10:00AM,10:00PM,10:00AM,7:00PM,Best in town!,https://www.facebook.com/pages/Rum-Runners-Liquor-Store/112234101581,,,"Cheque, Debit, MasterCard, Visa",True,True,True,False,True,False,False,False,False,,,,,,True,False,Liquor Store
50097,POPLAR RIDGE LIQUOR STORE               ,76916700,6402 50 AVENUE                          ,DRAYTON VALLEY                                    ,AB,T7A 1S1   ,53.221902,-115.010676,(780) 514-0741  ,,,Liquor Store,syeomalley@shaw.ca                      ,10:00am,9:00pm,10:00am,9.00pm,10:00am,9:00pm,10:00am,10:00pm,10:00am,10:00pm,10:00am,10:00pm,10:00am,9:00pm,,,,,,False,False,False,False,False,False,False,False,False,False,,,,,False,False,Liquor Store
50100,LIQUOR DEPOT AT EAGLE RIDGE             ,76918000,130-151 LOUTIT ROAD                     ,FORT MCMURRAY                                     ,AB,T9K 0K6   ,56.752813,-111.441971,(780) 743-1237  ,,,Liquor Store,1010017store@liquordepot.ca             ,,,,,,,,,,,,,,,,,,,,False,False,False,False,False,False,False,False,False,,,,,,True,False,Liquor Store
50102,RADISSON LIQUOR & COLD BEER             ,76922800,121-575 28 STREET SE                    ,CALGARY                                           ,AB,T2A 6X1   ,51.047406,-113.990162,(403) 248-1926  ,,,Liquor Store,radisson@dctran.ca                      ,10:00AM,10:00PM,10:00AM,10:00PM,10:00AM,10:00PM,10:00AM,10:00PM,10:00AM,12:00AM,10:00AM,12:00AM,10:00AM,8:00PM,,,,,"AMEX, Debit, MasterCard, Visa",False,False,False,False,False,False,False,False,False,,,,,,False,False,Liquor Store
50103,156 STREET LIQUOR STORE                 ,76923600,10149 156 STREET NW                     ,EDMONTON                                          ,AB,T5P 3Z2   ,53.542926,-113.589653,(780) 484-6937  ,,,Liquor Store,156street@splm.ca                       ,10:00AM,,10:00AM,,10:00AM,,10:00AM,,10:00AM,1:00AM,10:00AM,1:00AM,10:00AM,,,,,,"AMEX, Debit, MasterCard, Visa",False,True,False,False,True,False,False,False,False,,,,,,False,False,Liquor Store
50107,REAL CANADIAN LIQUOR STORE              ,76925400,4420 17 STREET NW                       ,EDMONTON                                          ,AB,T6T 0C1   ,53.481292,-113.372489,(780) 450-6519  ,realcanadianliquorstore.ca,,Liquor Store,mon01669@loblaw.ca                      ,10:00am,11:00pm,10,11:00pm,10,11:00pm,10,11:00pm,10,11:00pm,10,11:00pm,10,8:00pm,,https://www.facebook.com/Real-Canadian-Liquor-Store-2152109028413764/,,,"Visa, Master Card, Debit, Cash",False,False,False,False,False,False,False,False,False,False,,,,,True,False,Liquor Store
50112,JASPER WINE MERCHANTS                   ,76930900,608C PATRICIA STREET                    ,JASPER                                            ,AB,T0E 1E0   ,52.875281,-118.081962,(780) 852-9763  ,,,Liquor Store,brookedoiron.jwm@gmail.com              ,11:00am,12:45am,11:00am,12:45am,11:00am,12:45am,11:00am,12:45am,11:00am,12:45am,11:00am,12:45am,11:00am,12:45am,"Wine, Beer, liquor, all can be free delivery",,,,,True,True,False,False,True,False,False,False,True,False,,,,,False,False,Liquor Store
50113,SARGENT LIQUOR STORE                    ,76932200,140-190 BOUDREAU ROAD                   ,ST ALBERT                                         ,AB,T8N 6B9   ,53.653268,-113.626177,(780) 419-2464  ,,,Liquor Store,sminhas5@hotmail.com                    ,10:00am,12:00am,10:00am,12:00am,10:00am,12:00am,10:00am,12:00am,10:00am,12:00am,10:00am,12:00am,10:00am,12:00am,,,,,,False,False,False,False,False,False,False,False,False,False,,,,,False,False,Liquor Store
50114,LIQUOR ON 16                            ,76932700,5021 47 AVENUE                          ,ENTWISTLE                                         ,AB,T0E 0S0   ,53.589081,-114.99353,(780) 727-2124  ,,,Liquor Store,liquoron16@yahoo.ca                     ,10,10:00pm,10,10:00P,10:00am,10:00P,10:00am,10:00P,10,10:00P,10,10:00P,11,8:00pm,BEER. WINE. COOLERS. LIQUOR.,,,,"CASH- DEBT-VISA- MASTER CARD.
APPLE PAY",True,True,False,False,True,False,False,True,True,False,,,,,False,False,Liquor Store
50115,CHEERS AND BEERS                        ,76933400,10106 118 AVENUE NW                     ,EDMONTON                                          ,AB,T5G 0P5   ,53.570603,-113.494098,(780) 757-8540  ,,,Liquor Store,gill_paul@outlook.com                   ,10:00am,2:00am,10:00am,2:00am,10:00am,2:00am,10:00am,2:00am,10:00am,2:00am,10:00am,2:00am,10:00am,2:00am,,,,,,False,False,False,False,False,False,False,False,False,False,,,,,False,False,Liquor Store
50120,RED CHIMNEY LIQUOR STORE                ,76939700,35 WHITE EARTH STREET                   ,SMOKY LAKE                                        ,AB,T0A 3C0   ,54.111449,-112.474813,(780) 656-3526  ,,,Liquor Store,nadak2007@hotmail.com                   ,,,,,,,,,,,,,,,,,,,,False,False,False,False,False,False,False,False,False,,,,,,False,False,Liquor Store
50121,SOBEYS LIQUOR (CRANSTON)                ,76941500,CRANSTON                                ,CALGARY                                           ,AB,T3M 0J5   ,50.884124,-113.980373,(403) 257-9100  ,,,Liquor Store,swcb5021cranston@sobeys.com             ,,,,,,,,,,,,,,,,,,,,False,False,False,False,False,False,False,False,False,,,,,,True,False,Liquor Store
50126,LEDUC CO-OP LIQUOR                      ,76943500,103 100B DEER VALLEY DRIVE              ,LEDUC                                             ,AB,T9E 0S6   ,53.266092,-113.592851,(780) 980-5139  ,,,Liquor Store,terris@leduccoop.ca                     ,9:00am,10:00AM,9:00am,10:00AM,9:00am,10:00AM,9:00am,10:00AM,9:00am,10:00AM,9:00am,10:00AM,9:00am,9:00pm,,,,,"AMEX, Debit, MasterCard, Visa",True,True,True,False,True,False,False,False,False,False,,,,,True,False,Liquor Store
50127,SIPPERS LIQUOR MART                     ,76944900,10001 80 STREET                         ,PEACE RIVER                                       ,AB,T8S 1R2   ,56.232567,-117.332723,(780) 624-2818  ,,,Liquor Store,essoliquormart@gmail.com                ,10:00am,11:00pm,10:00am,11:00pm,10:00am,11:00pm,10:00am,12:00am,10:00am,12:00am,10:00am,12:00am,10:30am,11:00pm,,,,,,False,False,False,False,False,False,False,True,False,False,,,,,False,False,Liquor Store
50129,COSTCO CANADA LIQUOR                    ,76947100,3210 MAYOR MAGRATH DRIVE S              ,LETHBRIDGE                                        ,AB,T1K 6Y6   ,49.659683,-112.793639,(403) 320-6352  ,,,Liquor Store,                                        ,,,,,,,,,,,,,,,,,,,,False,False,False,False,False,False,False,False,False,,,,,,False,False,Liquor Store
50130,COSTCO CANADA LIQUOR                    ,76947200,A-99 HERITAGE GATE SE                   ,CALGARY                                           ,AB,T2H 3A7   ,50.989565,-114.046426,(403) 252-7129  ,,,Liquor Store,                                        ,,,,,,,,,,,,,,,,,,,,False,False,False,False,False,False,False,False,False,,,,,,False,False,Liquor Store
50132,COSTCO CANADA LIQUOR                    ,76947400,A-9901 116 STREET                       ,GRANDE PRAIRIE                                    ,AB,T8V 6H6   ,55.16891,-118.844323,(780) 532-3619  ,,,Liquor Store,w01066mgr@costcocanadaliquor.ca         ,,,,,,,,,,,,,,,,,,,,False,False,False,False,False,False,False,False,False,,,,,,False,False,Liquor Store
50135,REAL CANADIAN LIQUOR STORE              ,76951500,10710 83 AVENUE                         ,GRANDE PRAIRIE                                    ,AB,T8W 0G9   ,55.155225,-118.818529,(780) 538-4074  ,,,Liquor Store,mon00101@loblaw.ca                      ,,,,,,,,,,,,,,,,,,,,False,False,False,False,False,False,False,False,False,,,,,,True,False,Liquor Store
50136,CALGARY CO-OP WINES & SPIRITS-CROWFOOT  ,76952700,39 CROWFOOT WAY NW                      ,CALGARY                                           ,AB,T3G 2L4   ,51.124519,-114.200601,(403) 299-5341  ,,,Liquor Store,liquorstore13@calgarycoop.com           ,10:00am,10:00pm,10:00am,10:00pm,10:00am,10:00pm,10:00am,10:00pm,10:00am,10:00pm,10:00am,10:00pm,10:00am,10:00pm,,,,,,False,False,False,False,False,False,False,False,False,False,,,,,True,False,Liquor Store
50139,VALLEY COLD BEER AND LIQUOR STORE       ,76958700,208 MAIN STREET NW                      ,TURNER VALLEY                                     ,AB,T0L 2A0   ,50.676091,-114.27917,(403) 933-2722  ,www.valleyliquor.ca,,Liquor Store,info@valleyliquor.ca                    ,10:00am,9:00pm,10:00am,9:00pm,10:00am,9:00pm,10:00am,9:00pm,10:00am,10:00pm,10:00am,10:00pm,10:00am,9:00pm,,,,,"Cash, Debit, MC, Visa",True,True,False,False,False,True,False,False,False,True,,,,,False,False,Liquor Store
50142,ASPEN WINE & SPIRITS                    ,76962500,130-366 ASPEN GLEN LANDING SW           ,CALGARY                                           ,AB,T3H 0N5   ,51.039201,-114.207503,(403) 239-4904  ,crowfootliquor.com,,Liquor Store,manager@aspenwineandspirits.com         ,10:00am,12:00am,10:00am,12:00am,10:00am,12:00am,10:00am,12:00am,10:00am,12:00am,10:00am,12:00am,10:00am,12:00am,"-Boutique Wine, Spirits and Beers
-Rare Vintages
-Rare Scotches, Whiskeys and Tequilas",http://www.facebook.com/crowfootwineandspirits,https://twitter.com/CrowfootWine,,"AMEX, Debit, MasterCard, Visa, cash",False,True,False,False,True,True,False,True,False,False,,,,,True,False,Liquor Store
50143,ACE LIQUOR DISCOUNTER AT SUMMERWOOD     ,76963200,50-4005 CLOVERBAR ROAD                  ,SHERWOOD PARK                                     ,AB,T8H 0M4   ,53.556884,-113.274317,(780) 449-3848  ,,,Liquor Store,1010544store@aceliquor.ca               ,10:00am,12:00am,10:00am,12:00am,10:00am,12:00am,10:00am,12:00am,10:00am,1:55am,10:00am,1:55am,10:00am,12:00am,,,,,,False,False,False,False,False,False,False,False,False,False,,,,,True,False,Liquor Store
50145,2A LIQUOR MART                          ,76963900,5041 PARKWOOD ROAD                      ,BLACKFALDS                                        ,AB,T0M 0J0   ,52.381405,-113.787946,(403) 885-6055  ,,,Liquor Store,2aliquor@gmail.com                      ,10:00am,10:00pm,10:00am,10:00pm,10:00am,10:00pm,10:00am,10:00pm,10:00am,11:00pm,10:15am,10:00pm,10:00am,10:00pm,,,,,,False,True,False,False,False,False,False,False,False,False,,,,,False,False,Liquor Store
50146,MUNDARE LIQUOR STORE                    ,76964000,5203 50 STREET                          ,MUNDARE                                           ,AB,T0B 3H0   ,53.594157,-112.338375,(780) 764-3804  ,,,Liquor Store,dennis7224222@gmail.com                 ,10:00am,10:00pm,10:00am,10:00pm,10:00am,10:00pm,10,10:00pm,10:00am,11:00pm,10:00am,11:00pm,10:00am,6:00pm,,,,,,False,False,False,False,False,False,False,False,False,False,,,,,False,False,Liquor Store
50147,WILD ORCHID LIQUOR COMPANY              ,76965500,100-1336 SWITZER DRIVE                  ,HINTON                                            ,AB,T7V 2C1   ,53.399734,-117.587519,(780) 865-3228  ,,,Liquor Store,laberge.brian@gmail.com                 ,10:00am,10pm,10:00am,10pm,10:00am,10pm,10:00am,10pm,10:00am,10pm,10:00am,10pm,12:00pm,7:00pm,,,,,,True,True,True,False,False,False,False,False,False,True,,,,False,False,False,Liquor Store
50148,5 O'CLOCK SOMEWHERE                     ,76966400,5011 RAILWAY AVENUE                     ,CLIVE                                             ,AB,T0C 0Y0   ,52.476147,-113.448104,(403) 784-2078  ,,,Liquor Store,Theresawieler@gmail.com                 ,12:00pm,8:00pm,12:00pm,8:00pm,12:pm,8:00pm,12:30pm,8:00pm,12:00pm,9:00pm,12:00pm,9:00pm,Closed,Closed,,,,,,False,False,False,False,False,False,False,False,False,False,,,,,False,False,Liquor Store
50153,GRG LIQUOR                              ,76975500,5021 3 STREET                           ,BOYLE                                             ,AB,T0A 0M0   ,54.588484,-112.806616,(780) 689-4684  ,,,Liquor Store,sona7771666@hotmail.com                 ,10:00am,9:00pm,10:00am,10:00pm,10:00am,10:00pm,10:00am,10:00pm,10:00am,11:00pm,10:00am,11:00pm,10:00am,8:00pm,,,,,,False,True,False,False,False,False,False,False,False,False,,,,,False,False,Liquor Store
50159,CELLAR DOOR                             ,76983100,109-701 BENCHLANDS TRAIL                ,CANMORE                                           ,AB,T1W 3G9   ,51.087508,-115.327948,(403) 675-1100  ,http://www.cellardoorwine.ca/,,Liquor Store,info@cellardoorwine.ca                  ,11:00am,6:00pm,11:00am,6:00pm,11:00am,6:00pm,11:00am,6:00pm,11:00am,6:00pm,11:00am,6:00pm,12:00pm,6:00pm,"The Cellar Door is a boutique wine, spirits, and craft beer shop located in Canmore, Alberta in the heart of the majestic Rocky Mountains.",https://www.facebook.com/cellardoorwine/,,,,False,True,False,False,False,True,True,False,True,False,,,,,False,False,Liquor Store
50162,DAILY LIQUOR                            ,76984900,8-5010 4 STREET NE                      ,CALGARY                                           ,AB,T2K 5X8   ,51.097106,-114.053174,(403) 516-1217  ,www.dailyliquor.ca,,Liquor Store,dailyliquor@hotmail.com                 ,10:00am,2:00am,10:00am,2:00am,10:00am,2:00am,10:00am,2:00am,10:00am,2:00am,10:00am,2:00am,10:00am,2:00am,,,,,,True,True,False,False,True,False,False,True,True,False,,,,,False,False,Liquor Store
50163,LIQUOR BANK NORTHMOUNT                  ,76985000,1342A NORTHMOUNT DRIVE NW               ,CALGARY                                           ,AB,T2L 0E6   ,51.09321,-114.128464,(403) 453-1615  ,liquorbank.ca,,Liquor Store,                                        ,10:30am,10:30pm,10:30am,10:30pm,10:30am,10:30pm,10:30am,10:30pm,10:30am,11:30pm,10:30am,11:30pm,10:30am,10:30pm,,,,,,True,True,True,True,True,False,True,True,True,False,,,,,False,False,Liquor Store
50169,GREAT CANADIAN LIQUOR                   ,76995800,4309 50 AVENUE                          ,ST PAUL                                           ,AB,T0A 3A3   ,53.990979,-111.277049,(780) 645-5484  ,,,Liquor Store,                                        ,10,11p,10,11p,10,11p,10,11p,10,12a,10,12a,10,11p,,,,,,False,False,False,False,False,False,False,False,False,False,,,,,True,False,Liquor Store
50170,MG'S LIQUOR MART - WESTBROOK MALL       ,76995900,5556 50 AVENUE                          ,ST PAUL                                           ,AB,T0A 3A1   ,53.992027,-111.313101,(780) 483-8183  ,,,Liquor Store,                                        ,10,11p,10,11p,10,11p,10,11p,10,12a,10,12a,10,11p,,,,,,False,False,False,False,False,False,False,False,False,False,,,,,True,False,Liquor Store
50172,SOBEYS LIQUOR (AIRDRIE)                 ,77000600,5105 35 MACKENZIE WAY SW                ,AIRDRIE                                           ,AB,T4B 0V7   ,51.2913,-114.02476,(403) 945-9720  ,,,Liquor Store,                                        ,10:00am,11:00pm,10:00am,11:00pm,10:00am,11:00pm,10:00am,11:00pm,10:00am,11:00pm,10:00am,11:00pm,10:00am,8:00pm,,,,,,False,False,False,False,False,False,False,False,False,False,,,,,True,False,Liquor Store
50173,12 FT LIQUOR STORE                      ,77002300,9916 100 AVENUE                         ,PEACE RIVER                                       ,AB,T8S 1S4   ,56.234017,-117.291028,(780) 624-2224  ,,,Liquor Store,kangkimchi@yahoo.ca                     ,10:00am,1:00am,10:00am,1:00am,10:00am,1:00am,10:00am,1:00am,10:00am,1:00am,10:00am,1:00am,10:00am,1:00am,,,,,,False,False,False,False,False,False,False,False,False,False,,,,,False,False,Liquor Store
50174,CO-OP WINE SPIRITS BEER - CENTENNIAL    ,77004000,1-420 BIG ROCK LANE                     ,OKOTOKS                                           ,AB,T0L 1T5   ,50.717706,-113.980405,(403) 995-4581  ,coopwinespiritsbeer.com,,Liquor Store,                                        ,10:00am,10pm,10:00am,10p,10:00am,10p,11:00am,10p,10:00am,10p,10:00am,10p,10:00am,10p,,,,,,True,False,False,False,False,False,True,False,False,False,,,,,True,False,Liquor Store
50179,GREAT CANADIAN LIQUOR COMPANY           ,77006700,10108 101 AVENUE                        ,LAC LA BICHE                                      ,AB,T0A 2C0   ,54.770457,-111.976953,(780) 483-8183  ,,,Liquor Store,                                        ,10,11p,10,11p,10,11p,10,11p,10,12a,10,12a,10,11p,,,,,,False,False,False,False,False,False,False,False,False,False,,,,,True,False,Liquor Store
50183,THAT'S THE SPIRIT                       ,77013200,101 RIVERSTONE RIDGE                    ,FORT MCMURRAY                                     ,AB,T9K 0T9   ,56.757844,-111.440106,(780) 750-9967  ,,,Liquor Store,thatsthespirit@live.ca                  ,10:00am,12:00am,10:00am,12:00am,10:00am,12:00am,10:00am,2:00am,10:00am,2,10:00am,2,10:00am,12:00am,,,,,,False,False,False,False,False,False,False,False,False,False,,,,,False,False,Liquor Store
50184,COSTCO CANADA LIQUOR                    ,77013800,202-104 SOUTHBANK BOULEVARD             ,OKOTOKS                                           ,AB,T1S 0K4   ,50.70622,-113.945882,(403) 938-6092  ,,,Liquor Store,                                        ,,,,,,,,,,,,,,,,,,,,False,False,False,False,False,False,False,False,False,False,,,,,False,False,Liquor Store
50185,COSTCO CANADA LIQUOR                    ,77013900,302-293020 CROSSIRON COMMON             ,ROCKY VIEW COUNTY                                 ,AB,T4A 0J6   ,51.211177,-113.98414,(403) 295-1530  ,,,Liquor Store,                                        ,,,,,,,,,,,,,,,,,,,,False,False,False,False,False,False,False,False,False,,,,,,False,False,Liquor Store
50190,REAL CANADIAN LIQUOR STORE              ,77017700,3915B 50 STREET                         ,LEDUC                                             ,AB,T9E 6R3   ,53.252686,-113.542414,(780) 980-2093  ,,,Liquor Store,mon01603@loblaw.ca                      ,10:00am,10:00pm,10:00am,10:00pm,10:00am,10:00pm,10:00am,10:00pm,10:00am,10:00pm,10:00am,10:00pm,10:00am,8:00pm,,,,,,True,False,False,False,False,False,False,False,False,False,,,,,False,False,Liquor Store
50192,O'PUR LIQUOR STOPPE                     ,77018000,9709 100 STREET                         ,NAMPA                                             ,AB,T0H 2R0   ,56.034655,-117.133084,(780) 322-3766  ,,,Liquor Store,fasgasnampa@gmail.com                   ,10:00am,10:00pm,10:00am,10:00am,10:00am,10:00am,10:00am,10:00am,10:00am,10:00am,10:00am,10:00am,10:00am,10:00am,,,,,,False,False,False,False,False,False,False,False,False,False,,,,,False,False,Liquor Store
50195,CORNER LIQUOR STORE                     ,77021600,4905 2 STREET W                         ,CLARESHOLM                                        ,AB,T0L 0T0   ,50.025175,-113.5847,(403) 625-1780  ,NA,,Liquor Store,kjew50@hotmail.com                      ,10:00am,9:00pm,10:00am,9:00pm,10:00am,9:00pm,10:00am,9:00pm,10:00am,9:00pm,10:00am,9:00pm,10:00am,7:00pm,,NA,NA,,,False,False,False,False,False,False,True,False,False,False,,,,,False,False,Liquor Store
50200,WHAT ALES YOU                           ,77024400,10004-1006 HIGHWAY STREET               ,SEXSMITH                                          ,AB,T0H 3C0   ,55.353347,-118.770381,(780) 568-2250  ,,,Liquor Store,whatalesyou1@gmail.com                  ,,,,,,,,,,,,,,,,,,,,False,False,False,False,False,False,False,False,False,,,,,,False,False,Liquor Store
50203,HIGHLANDER WINE & SPIRITS MARDA LOOP    ,77027800,2112 33 AVENUE SW                       ,CALGARY                                           ,AB,T2T 1Z6   ,51.02429,-114.110496,(403) 640-7759  ,,,Liquor Store,mardaloop@highlanderwine.com            ,10:00AM,9:00PM,10:00AM,9:00PM,10:00AM,9:00PM,10:00AM,9:00PM,10:00AM,9:00PM,10:00AM,9:00PM,12:00pm,7:00pm,,,,,"AMEX, Debit, MasterCard, Visa",True,True,True,False,False,True,False,False,False,False,,,,,False,False,Liquor Store
50204,NOBLEFORD LIQUOR STORE                  ,77029400,110 KING STREET                         ,NOBLEFORD                                         ,AB,T0L 1S0   ,49.881463,-113.056913,(403) 824-3372  ,,,Liquor Store,moyong0413@gmail.com                    ,10:00AM,9:00AM,10:00AM,9:00AM,10:00AM,9:00AM,10:00AM,9:00AM,10:00AM,10:00AM,10:00AM,10:00AM,10:00AM,8:00AM,,,,,"Debit, MasterCard, Visa",False,False,False,False,False,False,False,False,False,,,,,,False,False,Liquor Store
50205,DALE'S LIQUOR STORE                     ,77030100,4809 51 AVENUE                          ,CAMROSE                                           ,AB,T4V 0V4   ,53.023262,-112.822175,(780) 672-1510  ,,,Liquor Store,dlinc@telus.net                         ,,,,,,,,,,,,,,,,,,,,False,False,False,False,False,False,False,False,False,,,,,,True,False,Liquor Store
50212,ALES WINES & SPIRITS                    ,77034200,5001 50 AVENUE                          ,CALMAR                                            ,AB,T0C 0V0   ,53.264713,-113.805938,(780) 985-3334  ,,,Liquor Store,dkmills_123@hotmail.com                 ,10:00am,11:00pm,10:00am,11:00pm,10:00am,11:00pm,10:00am,11:00pm,10:00am,12:00am,10:00am,12:00am,10:00am,11:00pm,,,,,,True,True,False,False,True,False,False,True,False,False,,,,,True,False,Liquor Store
50214,BROADWAY LIQUOR                         ,77036300,501 BROADWAY AVENUE                     ,BLACKFALDS                                        ,AB,T0M 0J0   ,52.381559,-113.795461,(403) 358-4763  ,,,Liquor Store,                                        ,,,,,,,,,,,,,,,,,,,,False,False,False,False,False,False,False,False,False,,,,,,False,False,Liquor Store
50216,EAGLE BUTTE CROSSING LIQUOR STORE       ,77041300,7 3 AVENUE EAST                         ,DUNMORE                                           ,AB,T1B 0J9   ,49.970747,-110.572706,(403) 528-8983  ,,,Liquor Store,r.macphail@sccoop.ca                    ,10:00am,10:00pm,10:00am,10:00pm,10:00am,10:00pm,10:00am,10:00pm,10:00am,10:00pm,10:00am,10:00pm,10:00am,8:00pm,"great selection on wine, spirits & cold beer",,,,,False,False,False,False,False,False,False,False,False,False,,,,,False,False,Liquor Store
50217,GREAT CANADIAN LIQUOR                   ,77041900,124 COLUMBIA BOULEVARD W                ,LETHBRIDGE                                        ,AB,T1K 4J4   ,49.675324,-112.873876,(403) 329-6996  ,,,Liquor Store,                                        ,10,11p,10,11p,10,11p,10,11p,10,12a,10,12a,10,11p,,,,,,False,False,False,False,False,False,False,False,False,False,,,,,True,False,Liquor Store
50223,MILLENNIUM LIQUOR                       ,77049700,250-220 LAKELAND DRIVE                  ,SHERWOOD PARK                                     ,AB,T8H 0N6   ,53.556178,-113.317956,(780) 467-9808  ,,,Liquor Store,Millenniumliquor1@gmail.com             ,10:00am,10:00pm,10:00am,10:00pm,10:00am,10:00pm,10:00am,10:00pm,10:00am,12:00am,10:00am,12:00am,10:15am,10:00pm,"Home of the exclusive  Beer, Wine and Spirits",Millennium liquor store Sherwood park,,,"Cash , Debit, visa , MasterCard",True,True,True,False,True,False,True,True,True,False,,,,,False,False,Liquor Store
50224,GATEWAY CROSSING LIQUOR                 ,77049900,5311 48 STREET                          ,ROCKY MOUNTAIN HOUSE                              ,AB,T4T 1A1   ,52.379558,-114.915512,(403) 845-2841  ,gateway crossing liquor store,,Liquor Store,gatewayliquor@evergreen.crs             ,10:00am,10:00pm,10:00am,10:00pm,10:00am,10:00pm,10:00am,10:00pm,10:00am,10:00pm,10:00am,10:00pm,10:00am,8:00pm,best liquor store in Rocky Mountain House,evergreen co-op liquor store,,,"AMEX, Debit, MasterCard, Visa",True,True,True,False,True,True,False,True,True,True,,,,,False,False,Liquor Store
50225,ACE LIQUOR DISCOUNTER AT WALDEN         ,77050300,151 WALDEN GATES SE                     ,CALGARY                                           ,AB,T2X 0R2   ,50.875947,-114.036474,(403) 256-4837  ,,,Liquor Store,1010751store@aceliquor.ca               ,,,,,,,,,,,,,,,,,,,,False,False,False,False,False,False,False,False,False,,,,,,True,False,Liquor Store
50227,WESTGATE LIQUOR STORE                   ,77052000,21621 STONY PLAIN ROAD NW               ,EDMONTON                                          ,AB,T5T 5X8   ,53.540632,-113.69255,(780) 447-5647  ,,,Liquor Store,jaydeol@shaw.ca                         ,,,,,,,,,,,,,,,,,,,,False,False,False,False,False,False,False,False,False,,,,,,False,False,Liquor Store
50234,WALLY'S BEER COOLER                     ,77054800,9320 100 STREET                         ,GRANDE PRAIRIE                                    ,AB,T8V 2K9   ,55.164621,-118.795532,(780) 513-4312  ,,,Liquor Store,wallysliquor@hotmail.com                ,10,11:00pm,10,11:00pm,10,11:00pm,10,11:00pm,10,11:00pm,10,11:00pm,10,10:00pm,,,,,,True,True,False,False,True,False,True,True,True,False,,,,,False,False,Liquor Store
50235,RAILSIDE LIQUOR STORE                   ,77055000,11232 101 AVENUE                        ,FAIRVIEW                                          ,AB,T0H 1L0   ,56.065859,-118.39172,(780) 835-2124  ,,,Liquor Store,thrim500@gmail.com                      ,10:00am,10:00pm,10:00am,11:00pm,10:00am,11:00pm,10:00am,12:00am,10:00am,12:00am,10:00am,12:00am,10:00am,10:00pm,,,,,,False,True,False,False,True,False,False,False,False,False,,,,,False,False,Liquor Store
50236,EAST AIRDRIE LIQUOR STORE               ,77055500,E1-1861 MEADOWBROOK DRIVE               ,AIRDRIE                                           ,AB,T4A 1V3   ,51.275749,-113.988938,(403) 945-0807  ,,,Liquor Store,jaswalkris@hotmail.com                  ,10,11pm,10,11pm,10,11pm,10,12am,10,1am,10,1am,10,11pm,Retail Store,,,,"Cash, Debt, Visa, Master Card, Amex",False,False,False,False,True,False,False,True,False,False,,,,,False,False,Liquor Store
50239,CRAZY HORSE LIQUOR STORE                ,77056600,9923 102 AVENUE                         ,CLAIRMONT                                         ,AB,T8X 5A4   ,55.259994,-118.794228,(780) 567-2086  ,,,Liquor Store,manager@chls.ca                         ,,,,,,,,,,,,,,,,,,,,False,False,False,False,False,False,False,False,False,,,,,,False,False,Liquor Store
50240,LEO'S LIQUOR MART                       ,77059700,10025 100 STREET                        ,PLAMONDON                                         ,AB,T0A 2T0   ,54.850109,-112.344479,(780) 798-2011  ,,,Liquor Store,leotracyp@hotmail.com                   ,10:00am,9:00pm,10:00am,9:00pm,10:00am,9:00pm,10:00am,9:00pm,10:00am,9:00pm,10:00am,9:00pm,10:00am,6:00pm,,,,,"Cash, Debit, Visa, MasterCard",True,True,False,False,False,False,False,False,False,False,,,,,False,False,Liquor Store
50244,LYNNWOOD LIQUOR SHOP                    ,77061300,8738 149 STREET NW                      ,EDMONTON                                          ,AB,T5R 1B6   ,53.520464,-113.57841,(780) 486-1046  ,,,Liquor Store,                                        ,10:00AM,10:00PM,10:00AM,10:00PM,10:00AM,10:00PM,10:00AM,10:00PM,10:00AM,11:00PM,10:00AM,11:00PM,12:00PM,8:00PM,,,,,"AMEX, Debit, MasterCard, Visa",False,False,False,False,False,False,False,False,False,,,,,,False,False,Liquor Store
50246,CROWN LIQUOR STORE (COMMONWEALTH)       ,77062500,9119 STADIUM ROAD NW                    ,EDMONTON                                          ,AB,T5H 3W7   ,53.554638,-113.478846,(780) 413-8988  ,,,Liquor Store,                                        ,10:00am,12:00am,10:00am,12:00am,10:00am,12:00am,10:00am,12:00am,10:00am,12:00am,10:00am,12:00am,10:00am,12:00am,,,,,,False,False,False,False,False,False,False,False,False,False,,,,,True,False,Liquor Store
50247,CROWN LIQUOR STORE (RITCHIE)            ,77062600,9537 76 AVENUE NW                       ,EDMONTON                                          ,AB,T6C 0K1   ,53.512134,-113.475826,(780) 413-8988  ,,,Liquor Store,                                        ,,,,,,,,,,,,,,,,,,,,False,False,False,False,False,False,False,False,False,,,,,,True,False,Liquor Store
50248,JIMMY'S LIQUOR STORE                    ,77063100,10515 100 AVENUE                        ,GRANDE PRAIRIE                                    ,AB,T8V 0V5   ,55.170416,-118.812112,(780) 513-0676  ,,,Liquor Store,Jimmys.liquor@yahoo.com                 ,,2:00am,,2:00am,,2:00am,,2:00am,,2:00am,,2:00am,,2:00am,,Jimmys liquor,,,,False,False,False,False,False,False,False,False,False,False,,,,,False,False,Liquor Store
50249,SUNTERRA CELLAR                         ,77065000,201A-10150 JASPER AVENUE NW             ,EDMONTON                                          ,AB,T5J 1W4   ,53.541478,-113.494836,(780) 426-4441  ,,,Liquor Store,cpcellar@sunterra.ca                    ,,,,,,,,,,,,,,,,,,,,False,False,False,False,False,False,False,False,False,,,,,,False,False,Liquor Store
50253,GREAT CANADIAN LIQUOR                   ,77065300,11478 149 STREET NW                     ,EDMONTON                                          ,AB,T5M 1W7   ,53.565309,-113.579439,(780) 451-5384  ,https://www.greatcanadianliquor.com/,,Liquor Store,info@greatcanadianliquor.com            ,10,11p,10,11p,10,11p,10,11p,10,12a,10,12a,10,11p,"Huge location featuring massive cooler, a tasting room, special clearance room and a great selection of wines!",https://www.facebook.com/greatcanadianliquor,,,"MC, VISA, AMEX, Cash, Debit, Applepay",True,True,True,False,True,False,False,False,False,False,Theme 2,"Great Canadian Liquor, everything you need, closer & cheaper",,False,True,False,Liquor Store
50254,MY LIQUOR STORE                         ,77068700,12411 107 AVENUE NW                     ,EDMONTON                                          ,AB,T5M 1Z2   ,53.550716,-113.536554,(780) 413-9899  ,,,Liquor Store,ssingla1973@gmail.com                   ,,,,,,,,,,,,,,,,,,,"AMEX, Debit, MasterCard, Visa",False,False,False,False,False,False,False,False,False,False,,,,,False,False,Liquor Store
50256,JD'S LIQUOR & COLD BEER                 ,77071400,4 MCKENZIE AVENUE                       ,HUGHENDEN                                         ,AB,T0B 2E0   ,52.510727,-110.968042,(780) 856-2704  ,,,Liquor Store,jyleef2003@yahoo.ca                     ,11:00am,8:00pm,11:00am,8:00pm,11:00am,8:00pm,11:00am,8:00pm,11:00am,8:00pm,10:00am,8:00pm,Closed,Closed,,,,,,False,True,False,False,False,False,False,True,False,False,,,,,False,False,Liquor Store
50263,GLASSY LIQUOR ON 34                     ,77079900,3377 28A AVENUE NW                      ,EDMONTON                                          ,AB,T6X 1A5   ,53.458882,-113.39314,(780) 466-7348  ,,,Liquor Store,liquorglassy@gmail.com                  ,10.00,10:00pm,10:00am,10:00pm,10:00am,10:00pm,10:00am,10:00pm,10:00am,11:00pm,10:00am,11:00pm,10:00am,10:00pm,,,,,,False,False,False,False,False,False,False,False,False,False,,,,,False,False,Liquor Store
50264,ACE LIQUOR DISCOUNTER AT ALBANY SQUARE  ,77081000,16710 127 STREET NW                     ,EDMONTON                                          ,AB,T6V 1B1   ,53.629329,-113.542025,(780) 988-1796  ,,,Liquor Store,                                        ,10:00AM,10:00PM,10:00AM,10:00PM,10:00AM,10:00PM,10:00AM,10:00PM,10:00AM,12:00AM,10:00AM,12:00AM,10:00AM,9:00PM,,,,,"AMEX, Debit, MasterCard, Visa",False,False,False,False,False,False,False,False,False,,,,,,True,False,Liquor Store
50272,SUPERVALUE LIQUOR STORE                 ,77086500,4506 118 AVENUE NW                      ,EDMONTON                                          ,AB,T5W 1A9   ,53.570601,-113.411231,(780) 757-9091  ,,,Liquor Store,                                        ,9:00am,2:00AM,9:00am,2:00AM,9:00am,2:00AM,9:00am,2:00AM,9:00am,2:00AM,9:00am,2:00AM,9:00am,2:00AM,"Retail Liquor Store selling BEER, WINE, COOLER, LIQUOR",,,,"Debit, MasterCard, Visa",True,True,False,False,False,False,False,False,False,False,,,,,True,False,Liquor Store
50275,ROYAL SPIRITS LAKELAND                  ,77088000,105-9215 LAKELAND DRIVE                 ,GRANDE PRAIRIE                                    ,AB,T8X 0B8   ,55.198503,-118.769823,(780) 882-6500  ,,,Liquor Store,                                        ,10:00am,10:00pm,10:00am,10:00pm,10:00am,10:00pm,10:00am,10:00pm,10:00am,11:00pm,10:00am,11:00pm,10:00am,9:00pm,Locally owned. Great Selection!,,,,,False,True,False,False,True,False,False,True,False,False,,,,,False,False,Liquor Store
50277,TOWN & COUNTRY LIQUOR STORE             ,77089500,1027 MAIN STREET                        ,PINCHER CREEK                                     ,AB,T0K 1W0   ,49.485958,-113.934897,(403) 627-3040  ,,,Liquor Store,tcpc@hotmail.ca                         ,9:00am,9:00pm,9:00am,9:00pm,9:00am,9:00pm,9:00am,9:00pm,9:00am,9:00pm,9:00am,9:00pm,10:15am,6:00pm,,https://www.facebook.com/tcpcinc,,,,True,True,False,False,True,False,False,True,False,False,Theme 2,,,False,True,False,Liquor Store
50278,TOWN & COUNTRY LIQUOR STORE             ,77089600,528 24 STREET                           ,FORT MACLEOD                                      ,AB,T0L 0Z0   ,49.725378,-113.399394,(403) 553-0123  ,,,Liquor Store,tclouann@shaw.ca                        ,9:00am,9:00pm,9:00am,9:00pm,9:00am,9:00pm,9:00am,9:00pm,9:00am,10:00pm,9:00am,10:00pm,11:00am,6:00pm,,Town & Country Fort Macleod,,,,True,True,True,False,True,False,False,True,False,False,,,,,True,False,Liquor Store
50280,ROCKY LIQUOR STORE                      ,77091100,4912 47 AVENUE                          ,ROCKY MOUNTAIN HOUSE                              ,AB,T4T 1E1   ,52.370568,-114.918077,(403) 845-3222  ,,,Liquor Store,rockyliquor@gmail.com                   ,10:00am,7:00pm,10:00am,7:00pm,10:00am,7:00pm,10:00am,7:00pm,10:00am,8:00pm,11:00am,7:00pm,Closed,Closed,,,,,,False,False,False,False,False,False,False,False,False,False,,,,,True,False,Liquor Store
50282,CANADA GREY MOTOR INN                   ,77094400,616 2 AVENUE WEST                       ,HANNA                                             ,AB,T0J 1P0   ,51.641324,-111.941151,(403) 854-4471  ,,,Liquor Store,info@canadagrey.com                     ,10:00am,9:00pm,10:00am,9:00pm,10:00am,9:00pm,10:00am,9:00pm,10:00am,10:00pm,10:00am,10:00pm,10:00am,6:00pm,,,,,,False,True,False,False,True,False,False,True,False,False,,,,,False,False,Liquor Store
50287,CANADA LIQUOR STORE                     ,77099500,6825 26 AVENUE NE                       ,CALGARY                                           ,AB,T1Y 6M7   ,51.075892,-113.936097,(403) 285-6700  ,,,Liquor Store,canadahappy@yahoo.com                   ,,,,,,,,,,,,,,,,,,,,False,False,False,False,False,False,False,False,False,,,,,,False,False,Liquor Store
50290,BAYVIEW LIQUOR LOCKER                   ,77101200,5602 49 STREET                          ,MULHURST BAY                                      ,AB,T0C 2C0   ,53.051181,-113.999857,(780) 389-3784  ,,,Liquor Store,bayviewgrocery@hotmail.com              ,10:00am,7:00pm,10:00am,7:00pm,10:00am,7:00pm,10:00am,7:00pm,10:00am,7:00pm,10:00am,7:00pm,10:00am,6:00pm,,,,,,False,False,False,False,False,False,False,False,False,False,,,,,False,False,Liquor Store
50295,MR. LIQUOR (KING STREET)                ,77105400,1-9914 KING STREET                      ,FORT MCMURRAY                                     ,AB,T9H 5A8   ,56.714733,-111.350319,(780) 743-0052  ,,,Liquor Store,mr.liquor56@gmail.com                   ,10:00am,1:00am,10:00am,1:00am,10:00am,1:00am,10:00am,1:00am,10:00am,1:00am,10:00am,1:00am,10:00am,1:00am,"Full service beer, wine and liquor store",,,,Cash MasterCard Visa American Express and Debit,True,True,False,False,True,False,True,False,True,False,,,,,True,False,Liquor Store
50296,HOLDEN LIQUOR STORE                     ,77105700,5003 50 STREET                          ,HOLDEN                                            ,AB,T0B 2C0   ,53.233218,-112.234531,(780) 688-3779  ,,,Liquor Store,                                        ,,,,,,,,,,,,,,,,,,,,False,False,False,False,False,False,False,False,False,,,,,,False,False,Liquor Store
50297,SIERRA SPRINGS LIQUOR                   ,77107100,101-2958 MAIN STREET                    ,AIRDRIE                                           ,AB,T4B 3G4   ,51.258676,-114.004308,(403) 948-4202  ,www.sierraspringsliquor.ca,,Liquor Store,info@sierraspringsliquor.ca             ,10:00am,10:00pm,10:00am,10:00pm,10:00am,10:00pm,10:00am,10:00pm,10:00am,10:00pm,10:00am,10:00pm,10:00am,8:00pm,"Airdrie's First Specialty shop with The Largest Selection of Wine, Whiskies , Craft beer & more. Subscribe to our email list to receive the latest Events & Sales",@SierraSpringsLiquor,,,cash/mastercard/visa/debit/,True,True,True,False,True,True,True,True,True,True,Theme 1,SIERRA SPRINGS LIQUOR,"Sierra Springs Liquor prides itself on delivering the best price and the best selection to its customers.
Located north of Calgary,
Sierra Springs Liquor is Airdrie's first Specialty Shop with the largest selection of Wine, Whiskies, Craft Beers & more.
We strive to provide our customers with the best customer service.
Our team is trained to share their knowledge about wine, beers and spirits with our customers.
Come in and visit the store today and see the finest selection of wine, the widest range of beer, and the best collection of spirits in town!
You won't be disappointed!",False,True,False,Liquor Store
50298,BASELINE WINE & SPIRITS CO.             ,77107500,172-11 ATHABASCA AVENUE                 ,SHERWOOD PARK                                     ,AB,T8A 6H2   ,53.536175,-113.321419,(780) 449-4448  ,www.baselinewine.com,,Liquor Store,info@baselinewine.com                   ,10:00am,6:00pm,10:00am,6:00pm,10:00am,6:00pm,10:00am,7:00pm,10:00am,8:00pm,10:00am,6:00pm,Closed,Closed,"Sherwood Park's premiere wine boutique! We have been serving the Edmonton area for over 20 years and we specialize in hard to find, artisan wines.",,@Baselinewine,@Baselinewine,,True,True,True,False,False,True,True,True,True,False,Theme 1,Baseline Wine & Spirits,Sherwood Park's Original Wine Boutique!,True,True,False,Liquor Store
50299,LIQUOR BANK DOWNTOWN                    ,77109200,1105 14 STREET SW                       ,CALGARY                                           ,AB,T3C 1C2   ,51.043027,-114.094955,(403) 984-9298  ,liquorbank.ca,,Liquor Store,liquorbank@gmail.com                    ,10:00am,10:30pm,10:00am,10:30pm,10:00am,10:30pm,10:00am,10:30pm,10:00am,11:30pm,10:00am,11:30pm,10:00am,10:30pm,,,,,,True,True,True,False,True,False,True,False,False,False,,,,,False,False,Liquor Store
50306,GUNN ESSO LIQUOR STORE                  ,77115400,RANGE ROAD 32 & HIGHWAY 43              ,GUNN                                              ,AB,T0E 1A0   ,53.745078,-114.348657,(780) 803-9651  ,,,Liquor Store,gunnessoliquor@gmail.com                ,,,,,,,,,,,,,,,,,,,,False,False,False,False,False,False,False,False,False,,,,,,False,False,Liquor Store
50311,RED TAG LIQUOR STORE                    ,77116900,3904 56 STREET                          ,WETASKIWIN                                        ,AB,T9A 2B2   ,52.958176,-113.39312,(780) 352-7824  ,http://www.redtagliquor.ca,,Liquor Store,redtagliquorstore@gmail.com             ,10:00am,10:00pm,10:00am,10:00pm,10:00am,10:00pm,10:00am,10:00pm,10:00am,10:00pm,10:00am,10:00pm,10:00am,10:00pm,,https://www.facebook.com/Redtagliquor,,,,False,False,False,False,False,False,False,False,False,False,,,,,False,False,Liquor Store
50312,TOWERHILL WINES                         ,77119700,4-100 MILLIGAN DRIVE                    ,OKOTOKS                                           ,AB,T1S 1C5   ,50.732529,-113.966702,(403) 938-3370  ,towerhillwines.com,,Liquor Store,towerhillwines@telus.net                ,10:00am,10:00pm,10:00am,10:00pm,10:00am,10:00pm,10:00am,10:00pm,10:00am,10:00pm,10:00am,10:00pm,10:00am,9:00pm,,,,,,True,True,True,False,False,False,False,False,True,False,,,,,False,False,Liquor Store
50320,ENJOY LIQUOR                            ,77122400,301-800 VETERANS BOULEVARD NW           ,AIRDRIE                                           ,AB,T4B 3G9   ,51.300456,-114.024063,(403) 945-0920  ,,,Liquor Store,dykimca@gmail.com                       ,,,,,,,,,,,,,,,,,,,,False,False,False,False,False,False,False,False,False,,,,,,False,False,Liquor Store
50322,SWAN HILLS HOTEL                        ,77123800,4932 PLAZA AVENUE                       ,SWAN HILLS                                        ,AB,T0G 2C0   ,54.717805,-115.402654,(780) 333-4411  ,,,Liquor Store,                                        ,,,,,,,,,,,,,,,,,,,,False,False,False,False,False,False,False,False,False,,,,,,False,False,Liquor Store
50325,BEER 'SELLER'                           ,77129300,8301 99 STREET                          ,CLAIRMONT                                         ,AB,T0H 0W0   ,55.242693,-118.792282,(780) 538-3095  ,,,Liquor Store,mail@thebeerseller.ca                   ,,,,,,,,,,,,,,,,,,,,False,False,False,False,False,False,False,False,False,,,,,,False,False,Liquor Store
50334,CROSSROADS LIQUOR STORE                 ,77135400,958 16 STREET SW                        ,MEDICINE HAT                                      ,AB,T1A 8A4   ,50.024678,-110.709332,(403) 487-5540  ,http://crossroadsliquor.ca,,Liquor Store,info@crossroadsliquor.ca                ,10:00AM,9:00PM,10:00AM,9:00PM,10:00AM,9:00PM,10:00AM,9:00PM,10:00AM,10:00PM,10:00AM,10:00PM,10:00AM,8:00PM,,,,,"AMEX, Debit, MasterCard, Visa",False,True,True,False,False,False,False,False,False,,,,,,True,False,Liquor Store
50336,WINFIELD LIQUOR LOFT                    ,77137400,200 CENTRE STREET                       ,WINFIELD                                          ,AB,T0C 2X0   ,52.964856,-114.427777,(780) 682-2474  ,,,Liquor Store,terrillz@hotmail.com                    ,11:00am,9:00pm,11:00am,9:00pm,11:00am,9:00pm,11:00am,9:00pm,11:00am,10:00pm,11:00am,10:00pm,11:00am,6:00pm,,,,,,False,False,False,False,False,False,False,False,False,False,,,,,False,False,Liquor Store
50338,BROOKS LIQUOR STORE                     ,77139100,420 2 AVENUE W                          ,BROOKS                                            ,AB,T1R 0B1   ,50.566942,-111.901889,(403) 362-3277  ,,,Liquor Store,brooksliquorstore@gmail.com             ,,,,,,,,,,,,,,,,,,,,False,False,False,False,False,False,False,False,False,,,,,,False,False,Liquor Store
50339,METRO LIQUOR STORE                      ,77139300,3111-55 SKYVIEW RANCH ROAD NE           ,CALGARY                                           ,AB,T3N 0E4   ,51.164717,-113.962402,(403) 567-8153  ,www.metroliquorstores.com,,Liquor Store,bojan@metroliquorstores.com             ,10:00am,12:00am,10:00am,12:00am,10:00am,12:00am,10:00am,12:00am,10:00am,12:00am,10:00am,2:00am,10:00am,2:00am,"Specialize is Craft Beer, great selection of Spirits and Wine.
Variety of products from Europe.",,,,"Cash, Debit, MC, VISA",True,True,False,False,False,True,False,True,False,False,Theme 1,"Specialize in Craft Beer, and extensive selection of Wine and Spirits",,True,False,False,Liquor Store
50342,WALKING EAGLE LIQUOR STORE              ,77140900,A-4819 45 STREET                        ,ROCKY MOUNTAIN HOUSE                              ,AB,T4T 1A9   ,52.372079,-114.910063,(403) 845-4439  ,,,Liquor Store,weliquorstore@shaw.ca                   ,10:00am,11:00pm,10:00am,11:00pm,10:00am,11:00pm,10:00am,11:00pm,10:00am,11:00pm,10:00am,11:00pm,10:00am,11:00pm,,,,,,False,False,False,False,False,False,False,False,False,False,,,,,False,False,Liquor Store
50344,ACE LIQUOR DISCOUNTER AT HIGH PRAIRIE   ,77142000,4700 53 AVENUE                          ,HIGH PRAIRIE                                      ,AB,T0G 1E0   ,55.433235,-116.486071,(780) 523-9830  ,,,Liquor Store,ls325@lsgp.ca                           ,10:00am,10:00pm,10:00am,10:00pm,10:00am,10:00pm,10:00am,10:00pm,10:00am,10:00pm,10:00am,10:00pm,12:00pm,8:00pm,,,,,,False,False,False,False,False,False,False,False,False,False,,,,,True,False,Liquor Store
50346,LIQUOR STORE ON 111TH                   ,77142800,9611 111 AVENUE NW                      ,EDMONTON                                          ,AB,T5G 0A9   ,53.558929,-113.489983,(780) 421-7655  ,,,Liquor Store,                                        ,10:00am,2:00am,10:00am,2:00am,10:00am,2:00am,10:00am,2:00am,10:00am,2:00am,10:00am,2:00am,10:00am,2:00am,,liquor on 111,,,,False,False,False,False,False,False,False,False,False,False,,,,,False,False,Liquor Store
50358,TWISTED LIME LIQUOR CO.                 ,77148800,4902  52 STREET                         ,THORSBY                                           ,AB,T0C 2P0   ,53.226537,-114.051176,(780) 789-0100  ,,,Liquor Store,twistedlime@telus.net                   ,10:00am,9:00pm,10:00am,9:00pm,10:00am,9:00pm,10:00am,9:00pm,10:00am,9:00pm,10:00am,9:00pm,10:00am,8:00pm,,Twisted Lime Liquor Co,,,"Debit , Visa , Mastercard , Cash",True,True,False,False,True,False,False,True,False,True,,,,,False,False,Liquor Store
50365,LIQUOR ON 7TH                           ,77153600,11127 107 AVENUE NW                     ,EDMONTON                                          ,AB,T5H 0X9   ,53.551208,-113.513401,(780) 423-0925  ,,,Liquor Store,                                        ,10:00am,11:00pm,10:00am,11:00pm,10:00am,11:00pm,10:00am,11:00pm,10:00am,12:00am,10:00am,12:00am,10:00am,10:00pm,,,,,,True,True,False,False,False,False,False,False,False,False,,,,,False,False,Liquor Store
50366,FALUN LIQUOR STORE                      ,77153900,RANGE ROAD 273 & HWY 13                 ,FALUN                                             ,AB,T0C 1H0   ,52.953852,-113.849422,(780) 352-5231  ,,,Liquor Store,pigeonlaker@hotmail.com                 ,Closed,Closed,Closed,Closed,10:30am,8:00pm,10:30am,8:00pm,10:30am,9:00pm,10:30am,9:00pm,11:00am,7:00pm,,Falun Liquor Store  page,,,online,False,True,False,False,False,False,True,True,False,False,,,,,False,False,Liquor Store
50369,VINE ARTS WINE AND SPIRITS              ,77159300,1310 1 STREET SW                        ,CALGARY                                           ,AB,T2R 0V7   ,51.040131,-114.065671,(403) 290-0700  ,www.vinearts.ca,,Liquor Store,vicpark@vinearts.ca                     ,10:00am,9:00pm,10:00am,9:00pm,10:00am,9:00pm,10:00am,9:00pm,10:00am,9:00pm,10:00am,9:00pm,12:00 pm,6:00pm,"One of Canada's top boutique liquor stores specializing in unique and interesting wines, beers, spirits, bitters, growler fills, cocktail supplies and more!",www.facebook.com/vinearts,@vinearts,,"Visa, Mastercard, Debit, Amex",True,True,False,False,False,True,False,True,False,True,,,,,False,False,Liquor Store
50374,APPLEWOOD LIQUOR STORE                  ,77162500,1288 68 STREET SE                       ,CALGARY                                           ,AB,T2A 7X7   ,51.042929,-113.93446,(403) 207-0155  ,,,Liquor Store,montyparmar@hotmail.com                 ,10:00am,12:00am,10:00am,12:00am,10:00am,12:00am,10:00am,12:00am,10:00am,12:00am,10:00am,12:00am,10:00am,12:00am,,,,,,False,False,False,False,False,False,False,False,False,False,,,,,False,False,Liquor Store
50381,SOBEYS LIQUOR (COLD LAKE)               ,77168100,B-6203 51 STREET                        ,COLD LAKE                                         ,AB,T9M 1Z9   ,54.429326,-110.20539,(780) 594-6320  ,,,Liquor Store,swcb3045coldlake@sobeys.com             ,10:00am,10:00pm,10:00am,10:00pm,10:00am,10:00pm,10:00am,10:00pm,10:00am,10:00pm,10:00am,10:00pm,10:00am,9:00pm,,,,,,False,False,False,False,False,False,False,False,False,False,,,,,True,False,Liquor Store
50382,SOBEYS LIQUOR (WESTLOCK)                ,77168200,9940 99 AVENUE                          ,WESTLOCK                                          ,AB,T7P 1Y9   ,54.157011,-113.867619,(780) 349-3520  ,,,Liquor Store,                                        ,,,,,,,,,,,,,,,,,,,,False,False,False,False,False,False,False,False,False,False,,,,,True,False,Liquor Store
50385,A LIQUOR STORE                          ,77172600,304 CARIBOU STREET                      ,BANFF                                             ,AB,T1L 1B5   ,51.176684,-115.570315,(403) 762-8246  ,,,Liquor Store,Sudheer.moola@gmail.com                 ,11:00am,12a,11:00am,12:00am,11:00am,12:00am,11:00am,12:00am,11:00am,12:00am,11:00am,12:00am,11:00am,12:00am,,,,,bank,False,False,False,False,False,False,False,False,False,False,,,,,False,False,Liquor Store
50387,EVEREST WINE & SPIRITS                  ,77172900,3001 DUNMORE ROAD SE                    ,MEDICINE HAT                                      ,AB,T1B 2H2   ,50.01176,-110.650775,(403) 526-2121  ,,,Liquor Store,                                        ,10:00am,11:00pm,10:00am,11:00pm,10:00am,11:00pm,10:00am,11:00pm,10:00am,12:00am,10:00am,12:00am,10:00am,11:00pm,LARGE SELECTION BEST PRICES.,EVEREST LIQUOR DISCOUNTER MEDICINE HAT,,,,True,True,True,False,True,False,True,True,False,False,,,,,False,False,Liquor Store
50388,13TH AVENUE LIQUOR STORE                ,77174000,102-1234 SOUTHVIEW DRIVE SE             ,MEDICINE HAT                                      ,AB,T1B 4B6   ,50.0103,-110.665855,(403) 528-6990  ,,,Liquor Store,e.rath@sccoop.ca                        ,9:00am,9:00pm,9:00am,9:00pm,9:00am,9:00pm,9:00am,9:00pm,9:00am,9:00pm,9:00am,9:00pm,10:00am,8:00pm,,,,,,False,False,False,False,False,False,False,False,False,False,,,,,False,False,Liquor Store
50389,BEAVER LIQUOR PLUS                      ,77174200,310 1 AVENUE                            ,BEAVERLODGE                                       ,AB,T0H 0C0   ,55.201615,-119.419187,(780) 354-3852  ,,,Liquor Store,beaverliquorplus@gmail.com              ,11:00am,11:00pm,11,11:00pm,11,11:00pm,11,11:00pm,11,11:00pm,11,11:00pm,11,11:00pm,,,,,,False,False,False,False,False,False,False,False,False,False,,,,,False,False,Liquor Store
50390,FALHER LIQUOR STORE                     ,77174300,32 MAIN STREET SE                       ,FALHER                                            ,AB,T0H 1M0   ,55.736711,-117.201348,(780) 837-2511  ,,,Liquor Store,falher01@telus.net                      ,,,,,,,,,,,,,,,,,,,,False,False,False,False,False,False,False,False,False,,,,,,True,False,Liquor Store
50393,SUPER VALUE LIQUOR                      ,77178800,16102 STONY PLAIN ROAD NW               ,EDMONTON                                          ,AB,T5P 4A2   ,53.541673,-113.599596,(780) 757-9040  ,,,Liquor Store,                                        ,9:00am,2:00AM,9:00am,2:00AM,9:00am,2:00AM,9:00am,2:00AM,9:00am,2:00AM,9:00am,2:00AM,9:00am,2:00AM,"Retail Liquor Store selling BEER, WINE, COOLER, LIQUOR",,,,"Debit, MasterCard, Visa",True,True,False,False,False,False,False,False,False,False,,,,,True,False,Liquor Store
50399,CO-OP WINE SPIRITS BEER - MONTROSE      ,77185800,300-1220 1 STREET SE                    ,HIGH RIVER                                        ,AB,T0L 0A0   ,50.571282,-113.867857,(403) 652-2167  ,,,Liquor Store,liquorstore24@coopwinespiritsbeer.com   ,10:00am,10:00pm,10:00am,10:00pm,10:00am,10:00pm,10:00am,10:00pm,10:00am,10:00pm,10:00am,10:00pm,10:00am,10:00pm,,,,,,False,True,False,False,False,False,True,False,False,False,,,,,True,False,Liquor Store
50402,WINE AND BEYOND AT WINDERMERE           ,77187800,6284 CURRENTS DRIVE NW                  ,EDMONTON                                          ,AB,T6W 0L8   ,53.43681,-113.610446,(780) 439-5130  ,https://www.wineandbeyond.ca/,,Liquor Store,ls581@lsgp.ca                           ,10:00am,10:00pm,10:00am,10:00pm,10:00am,10:00pm,10:00am,10:00pm,10:00am,11:00pm,10:00am,11:00pm,10:00am,9:00pm,,Wine and Beyond,@WineBeyond,,"Cash, Interac, Visa, Master Card, AMEX",True,True,True,False,True,True,False,True,False,True,,,,,True,False,Liquor Store
50408,WINE AND BEYOND AT EMERALD HILLS        ,77190700,300-7000 EMERALD HILLS                  ,SHERWOOD PARK                                     ,AB,T8H 0P5   ,53.567354,-113.274122,(780) 417-2821  ,,,Liquor Store,ls548@lsgp.ca                           ,800,10:00pm,8:00am,10:00pm,8:00am,10:00pm,8:00am,10:00pm,8:00am,11,8:00am,11:00pm,8:00am,9:00pm,My inventory staff only work till 430 in back to receive orders,,,,,False,False,False,False,False,False,False,False,False,False,,,,,True,False,Liquor Store
50419,97 STREET LIQUOR STORE                  ,77197300,12965 97 STREET NW                      ,EDMONTON                                          ,AB,T5E 4C4   ,53.589442,-113.491372,(780) 473-5974  ,,,Liquor Store,                                        ,10:00AM,2:00AM,10:00AM,2:00AM,10:00AM,2:00AM,10:00AM,2:00AM,10:00AM,2:00AM,10:00AM,2:00AM,10:00AM,2:00AM,,,,,"AMEX, Debit, MasterCard, Visa",False,False,False,False,False,False,False,False,False,,,,,,False,False,Liquor Store
50425,CORK N' CAP LIQUOR STORE                ,77205200,4151 70 AVENUE                          ,LLOYDMINSTER                                      ,AB,T9V 3L9   ,53.274504,-110.046905,(780) 875-2337  ,,,Liquor Store,corkncap2.lloyd@yahoo.com               ,,,,,,,,,,,,,,,,,,,,False,False,False,False,False,False,False,False,False,,,,,,False,False,Liquor Store
50430,GENTLEMEN'S LIQUOR STORE                ,77208700,4810 50 AVENUE                          ,WETASKIWIN                                        ,AB,T9A 1J7   ,52.968359,-113.374868,(780) 707-7154  ,pooni_ashok@yahoo.com,,Liquor Store,pooni_ashok@yahoo.com                   ,10,10:00pm,10,10:00pm,10,10:00pm,10,10:00pm,10,10:00pm,10,10:00pm,10,10:00pm,liquor store,Ajpooni,n.a,,td on line,True,False,False,False,False,False,False,False,False,False,,,,,False,False,Liquor Store
50433,A-Z LIQUOR STORE                        ,77211900,11257 30 STREET SW                      ,CALGARY                                           ,AB,T2W 4N5   ,50.953245,-114.129851,(403) 764-1530  ,,,Liquor Store,azliquorstore@gmail.com                 ,10:00am,11:00pm,10:00am,11:00pm,10:00am,11:00pm,10:00am,11:00pm,10:00am,1:00am,10:00am,1:00am,10:00am,11:00pm,,,,,,True,True,False,False,False,False,False,True,True,False,,,,,False,False,Liquor Store
50435,CROWFOOT WINE & SPIRITS - BOWNESS       ,77213300,BOWFORT ROAD PLAZA                      ,CALGARY                                           ,AB,T3B 2V2   ,51.085065,-114.210206,(403) 286-8288  ,crowfootliquor.com,,Liquor Store,bowness@crowfootliquor.com              ,10:00am,11:00pm,10:00am,11:00pm,10:00am,11:00pm,10:00am,12:00am,10:00am,12:00am,10:00am,12:00am,10:00am,11:00pm,,http://www.facebook.com/crowfootwineandspirits,https://twitter.com/CrowfootWine,,"AMEX, Debit, MasterCard, Visa, cash",False,True,False,False,True,False,False,True,False,False,,,,,True,False,Liquor Store
50436,CORNERSTONE CO-OP LIQUOR @ ST. PAUL     ,77213500,3-5017 42 STREET                        ,ST PAUL                                           ,AB,T0A 3A2   ,53.992863,-111.271454,(780) 645-7701  ,,,Liquor Store,Lori.Durack@cornerstone.crs             ,10:00am,10:00am,10:00am,10:00pm,10:00am,10:00pm,10:00am,10:00pm,10:00am,10:00pm,10:00am,10:00pm,10:00am,8:00pm,,,,,,False,False,False,False,False,False,False,False,False,False,,,,,False,False,Liquor Store
50438,EAST LAKE WINE AND SPIRITS              ,77216500,10-805 EAST LAKE BOULEVARD NE           ,AIRDRIE                                           ,AB,T4A 2G4   ,51.28507,-113.997099,(403) 948-5003  ,,,Liquor Store,east805lake@gmail.com                   ,,,,,,,,,,,,,,,,,,,,False,False,False,False,False,False,False,False,False,,,,,,False,False,Liquor Store
50439,ACE LIQUOR DISCOUNTER AT 137TH AVENUE   ,77217500,3832 137 AVENUE                         ,EDMONTON                                          ,AB,T5Y 3E7   ,53.599251,-113.399829,(780) 406-1229  ,,,Liquor Store,                                        ,9:00am,10:00pm,9:00am,10:00pm,9:00am,10:00pm,9:00am,10:00pm,9:00am,11p,9:00am,11:00pm,10:00am,9:00pm,,,,,,False,False,False,False,False,False,False,False,False,False,,,,,True,False,Liquor Store
50440,ACE LIQUOR DISCOUNTER AT OLD STRATHCONA ,77217600,10425 80 AVENUE NW                      ,EDMONTON                                          ,AB,T6E 1V1   ,53.51544,-113.498601,(780) 757-3328  ,,,Liquor Store,1010587store@aceliquor.ca               ,,,,,,,,,,,,,,,,,,,,False,False,False,False,False,False,False,False,False,,,,,,True,False,Liquor Store
50441,GOOD TIMES LIQUOR STORE                 ,77219000,1020 1 AVENUE                           ,HINES CREEK                                       ,AB,T0H 2A0   ,56.246868,-118.604004,(780) 494-2288  ,,,Liquor Store,marilyn1952@live.ca                     ,12:00pm,8:00pm,12:00pm,8:00pm,12:00pm,8:00pm,12:00pm,11:00pm,10:00am,11:00pm,10:00am,11:00pm,12:00pm,4:00pm,,,,,,False,False,False,False,False,False,False,False,False,False,,,,False,False,False,Liquor Store
50446,LIQUORAMA                               ,77224300,140-1830 52 STREET SE                   ,CALGARY                                           ,AB,T2B 1N1   ,51.036073,-113.957811,(403) 273-1300  ,,,Liquor Store,liquorama.se@gmail.com                  ,10:00am,10:00pm,10:00am,10:00pm,10:00am,10:00pm,10:00am,10:00pm,10:00am,10:00pm,10:00am,10:00pm,10:00am,7:00pm,RETAIL & WHOLESALE LIQUOR STORE,,,,"AMEX, Debit, MasterCard, Visa",True,True,True,False,True,False,False,True,True,False,,,,,False,False,Liquor Store
50449,URBN LIQUOR COMPANY                     ,77225700,9320A 100 AVENUE                        ,GRANDE PRAIRIE                                    ,AB,T8V 0S7   ,55.170936,-118.776357,(780) 538-4843  ,,,Liquor Store,eastliq@gmail.com                       ,,,,,,,,,,,,,,,,,,,,False,False,False,False,False,False,False,False,False,,,,,,False,False,Liquor Store
50457,FRIDAY'S LIQUOR                         ,77233700,2-247 13 STREET N                       ,LETHBRIDGE                                        ,AB,T1H 2R6   ,49.724627,-112.824081,(403) 331-2337  ,,,Liquor Store,                                        ,10:00am,2:00am,10:00am,2:00am,10:00am,2:00am,10:00am,2:00am,10:00am,2:00am,10:00am,2:00am,10:00am,2:00am,,,,,,False,True,False,False,False,False,False,False,True,False,,,,,False,False,Liquor Store
50462,SOLLY'S SPIRITS & WINES                 ,77236900,839 6 AVENUE SW                         ,CALGARY                                           ,AB,T2P 0V3   ,51.047812,-114.080851,(403) 269-6407  ,,,Liquor Store,sollysspirits@gmail.com                 ,10:00am,12:00am,10:00am,12:00am,10:00am,12:00am,10:00am,12:00am,10:00am,1:00am,10:00am,12:00am,10:00am,11:00pm,,,,,,False,False,False,False,False,False,False,False,True,False,,,,,False,False,Liquor Store
50463,CO-OP WINE SPIRITS BEER - SHAWNESSY     ,77237700,80-250 SHAWVILLE BOULEVARD SE           ,CALGARY                                           ,AB,T2Y 2Z7   ,50.903052,-114.064786,(403) 294-1966  ,https://www.coopwinespiritsbeer.com/,,Liquor Store,azgurov@coopwinespiritsbeer.com         ,10:00am,8:00pm,10:00am,8:00pm,10:00am,8:00pm,10:00am,8:00pm,10:00am,8:00pm,10:00am,8:00pm,10:00am,8:00pm,,,,,,False,True,True,False,False,True,True,True,True,False,,,,,True,False,Liquor Store
50464,COSTCO LIQUOR                           ,77237900,7255 WINTERBURN ROAD NW                 ,EDMONTON                                          ,AB,T5T 4K2   ,53.509178,-113.685695,(780) 443-0724  ,,,Liquor Store,                                        ,,,,,,,,,,,,,,,,,,,,False,False,False,False,False,False,False,False,False,,,,,,False,False,Liquor Store
50468,YOUR INDEPENDENT LIQUORSTORE            ,77242300,5 CLEARVIEW MARKET WAY                  ,RED DEER                                          ,AB,T4P 0M9   ,52.285842,-113.768608,(403) 342-1871  ,,,Liquor Store,                                        ,,,,,,,,,,,,,,,,,,,,False,False,False,False,False,False,False,False,False,,,,,,True,False,Liquor Store
50470,CELLAR FINE WINES & SPIRITS             ,77242800,100-137 8 AVENUE SW                     ,CALGARY                                           ,AB,T2P 1B4   ,51.045702,-114.062674,(403) 503-0730  ,www.cellarwinestore.com,,Liquor Store,                                        ,10:30am,6:30pm,10:30am,6:30pm,10:30am,6:30pm,10:00am,8:00pm,10:00am,8:00pm,11:00am,6:00pm,,,,,,,,True,True,True,False,True,True,False,True,True,False,,,,,False,False,Liquor Store
50474,ACE LIQUOR DISCOUNTER AT OTTEWELL       ,77246100,6212 90 AVENUE NW                       ,EDMONTON                                          ,AB,T6B 0P2   ,53.525612,-113.428349,(780) 469-5749  ,,,Liquor Store,1010588store@aceliquor.ca               ,10:00am,10:00pm,10:00am,10:00pm,10:00am,10:00pm,10:00am,10:00pm,10:00am,11:00pm,10:00am,11:00pm,11:00am,9:00pm,,,,,,False,False,False,False,False,False,False,False,False,False,,,,,True,False,Liquor Store
50479,LIQUOR BANK DALHOUSIE                   ,77252400,24-34 EDGEDALE DRIVE NW                 ,CALGARY                                           ,AB,T3A 2R4   ,51.118875,-114.156975,(403) 719-8616  ,,,Liquor Store,zyfydlj@gmail.com                       ,10:00am,10:30pm,10:00am,10:30pm,10:00am,10:30pm,10:00am,10:30pm,10:00am,11:30pm,10:00am,11:30pm,10:00am,10:30pm,,,,,,False,False,False,False,False,False,False,False,False,False,,,,,False,False,Liquor Store
50481,K & N LIQUOR STORE                      ,77254700,4801 48 STREET                          ,ELK POINT                                         ,AB,T0A 1A0   ,53.896428,-110.895623,(780) 724-4770  ,,,Liquor Store,petroelkpoint@gmail.com                 ,10:00am,11:00pm,10:00am,11:00pm,10:00am,11:00pm,10:00am,11:00pm,10:00am,12:00am,10:00am,12:00am,10:00am,11:00pm,,,,,,False,False,False,False,False,False,False,False,False,False,,,,,False,False,Liquor Store
50483,GREAT CANADIAN LIQUOR                   ,77256500,103-11710 102 STREET                    ,GRANDE PRAIRIE                                    ,AB,T8V 7S7   ,55.186755,-118.802448,(780) 532-6404  ,,,Liquor Store,                                        ,10,11p,10,11p,10,11p,10,11p,10,12a,10,12a,10,11p,,,,,,False,False,False,False,False,False,False,False,False,False,,,,,True,False,Liquor Store
50485,CROWFOOT WINE & SPIRITS - SPRINGBANK    ,77259600,105-7460 SPRINGBANK BOULEVARD SW        ,CALGARY                                           ,AB,T3H 3Y1   ,51.017993,-114.191825,(403) 242-2562  ,crowfootliquor.com,,Liquor Store,                                        ,10:00am,10:00pm,10:00am,10:00pm,10:00am,10:00pm,10:00am,10:00pm,10:00am,10:00pm,10:00am,10:00pm,10:00am,10:00pm,,http://www.facebook.com/crowfootwineandspirits,https://twitter.com/CrowfootWine,,"AMEX, Debit, MasterCard, Visa, cash",False,True,False,False,True,False,False,True,False,False,,,,,True,False,Liquor Store
50490,OLYMPIA LIQUOR BEACON HEIGHTS           ,77265000,260-12024 SARCEE TRAIL NW               ,CALGARY                                           ,AB,T3R 0J1   ,51.161117,-114.161422,(403) 265-1331  ,www.olympialiquor.ca,,Liquor Store,                                        ,10:00am,10:00pm,10:00am,10:00pm,10:00am,10:00pm,10:00am,10:00pm,10:00am,10:00pm,10:00am,10:00pm,10:00am,7:00pm,,,,,,True,True,False,False,True,False,False,True,False,False,,,,,True,False,Liquor Store
50493,STETTLER LIQUOR                         ,77266200,4821 62 STREET                          ,STETTLER                                          ,AB,T0C 2L2   ,52.324602,-112.73051,(403) 309-8913  ,,,Liquor Store,j.langan@centralab.coop                 ,,,,,,,,,,,,,,,,,,,,False,False,False,False,False,False,False,False,False,,,,,,False,False,Liquor Store
50494,RIVERFRONT WINE & SPIRITS               ,77268600,228 RIVERFRONT AVENUE SW                ,CALGARY                                           ,AB,T2P 0A5   ,51.052587,-114.067105,(403) 475-7455  ,www.riverfrontwines.com,,Liquor Store,info@riverfrontwines.com                ,11:00am,9:30p,11:00am,9:30pm,11:00am,9:30pm,11:00am,11:00pm,11:00am,11:00pm,11:00am,11:00pm,12:00pm,8:00pm,"We are a boutique liquor store, specializing in local craft beer, wines from the Pacific Northwest and unique spirits from Eastern Europe and the Middle East.",,,,"Debit, Cash, Mastercard, Visa, American Express, Applepay, Tap",True,True,True,False,True,False,False,False,False,False,,,,,False,False,Liquor Store
50497,5 VINES WINE  CRAFT BEER & SPIRITS      ,77271100,218 12 AVENUE SE                        ,CALGARY                                           ,AB,T2G 1G9   ,51.041451,-114.059859,(587) 955-9221  ,https://www.5vines.com,,Liquor Store,jerome@5vines.com                       ,10:00AM,9:00PM,10:00AM,9:00PM,10:00AM,9:00PM,10:00AM,10:00PM,10:00AM,11:00PM,10:00AM,11:00PM,,8:00PM,,https://www.facebook.com/pages/5-Vines-Wine-Craft-Beer-and-Spirits/1435333410023940?ref=hl,https://twitter.com/5_vines,,"Debit, MasterCard, Visa",True,True,True,False,True,True,False,False,False,,,,,,False,False,Liquor Store
50501,ACE LIQUOR DISCOUNTER AT GRANDE PRAIRIE ,77274500,9115 91 STREET                          ,GRANDE PRAIRIE                                    ,AB,T8X 0C7   ,55.162871,-118.767916,(780) 532-5586  ,,,Liquor Store,1010022store@aceliquor.ca               ,,,,,,,,,,,,,,,,,,,,False,False,False,False,False,False,False,False,False,,,,,,True,False,Liquor Store
50502,HERITAGE WINE AND SPIRITS               ,77274700,8419 ELBOW DRIVE SW                     ,CALGARY                                           ,AB,T2V 1K8   ,50.978752,-114.083985,(403) 401-4100  ,http://www.heritagewines.ca,,Liquor Store,heritagewine101@gmail.com               ,10:00am,10:00pm,10:00am,10:00pm,10:00am,10:00pm,10:00am,10:00pm,10:00am,10:00pm,10:00am,10:00pm,10:00am,8:00pm,"We know that good customer service starts with a great experience.Simply put - whether you are looking to spend $15 or $150, you should drink the best wine available. That's it!

",https://www.facebook.com/heritagewinescalgary,https://twitter.com/Heritagewne,,"AMEX, Debit, MasterCard, Visa",True,True,False,False,True,False,False,False,False,False,,,,,False,False,Liquor Store
50505,TROCHU LIQUOR STORE                     ,77277800,108 1 AVENUE N                          ,TROCHU                                            ,AB,T0M 2C0   ,51.824141,-113.235399,(403) 442-2696  ,,,Liquor Store,trochuliquor@gmail.com                  ,,,,,,,,,,,,,,,,,,,,False,False,False,False,False,False,False,False,False,,,,,,False,False,Liquor Store
50508,WILDWOOD HOTEL                          ,77279300,4830 51 AVENUE                          ,YELLOWHEAD COUNTY (WILDWOOD DISTRICT)             ,AB,T0E 2M0   ,53.609107,-115.233925,(780) 325-2000  ,,,Liquor Store,wwhotel@outlook.com                     ,10:30am,8:30pm,10:30am,8:30pm,10:30am,8:30pm,10:30am,8:30pm,10:30am,8:30pm,10:30am,8:30pm,10:30am,6:30pm,,,,,,False,False,False,False,False,False,False,False,False,False,,,,,False,False,Liquor Store
50509,SOBEYS LIQUOR (KINGSWAY)                ,77279400,11436 106 STREET NW                     ,EDMONTON                                          ,AB,T5G 3E3   ,53.564554,-113.503976,(780) 477-3707  ,,,Liquor Store,swcb3043kingsway@sobeys.com             ,,,,,,,,,,,,,,,,,,,,False,False,False,False,False,False,False,False,False,,,,,,True,False,Liquor Store
50513,SHOTZ LIQUOR & BEER STORE               ,77284500,5017 50 STREET                          ,ELK POINT                                         ,AB,T0A 1A0   ,53.89764,-110.900257,(780) 724-4008  ,,,Liquor Store,shotzliquor@gmail.com                   ,10:00am,10:00pm,10:00am,10:00pm,10:00am,10:00pm,10:00am,10:00pm,10:00am,10:00pm,10:00am,10:00pm,12:00pm,6:00pm,,,,,,False,False,False,False,False,False,False,False,False,False,,,,,False,False,Liquor Store
50514,CAESAR'S LIQUOR STORE                   ,77286800,9902 100 AVENUE                         ,HIGH LEVEL                                        ,AB,T0H 1Z0   ,58.51821,-117.130152,(780) 926-2510  ,,,Liquor Store,margaretkostrzycki@hotmail.ca           ,10,2,10,2,10,2,10,2,10,2,10,2,10,12,,,,,,False,True,False,False,True,False,False,True,True,False,,,,,False,False,Liquor Store
50518,OLYMPIA LIQUOR CREEKSIDE                ,77288000,12290 SYMONS VALLEY ROAD NW             ,CALGARY                                           ,AB,T3P 0A3   ,51.164054,-114.126366,(403) 263-9938  ,www.olympialiquor.ca,,Liquor Store,ranaboparai1959@hotmail.com             ,10:00am,10:00pm,10:00am,10:00pm,10:00am,10:00pm,10:00am,10:00pm,10:00am,11:00pm,10:00am,11:00pm,10:00am,10:00pm,,,,,,True,True,False,False,True,False,False,False,False,False,,,,,True,False,Liquor Store
50526,BASSANO LIQUOR STORE                    ,77296700,326 2 AVENUE                            ,BASSANO                                           ,AB,T0J 0B0   ,50.787968,-112.470276,(403) 641-3555  ,,,Liquor Store,bassanoliquorstore@gmail.com            ,10:00am,8:00pm,10:00am,8:00pm,10:00am,8:00pm,10:00am,8:00pm,10:00am,8:00pm,11:00am,8:00pm,11:00am,6:00pm,,,,,,False,False,False,False,False,False,False,False,False,False,,,,,False,False,Liquor Store
50530,BOWDEN LIQUOR STORE                     ,77300000,2020 20 AVENUE                          ,BOWDEN                                            ,AB,T0M 0K0   ,51.93279,-114.035891,(403) 224-3006  ,,,Liquor Store,bowdenliquor@gmail.com                  ,,,,,,,,,,,,,,,,,,,,False,False,False,False,False,False,False,False,False,,,,,,False,False,Liquor Store
50531,CO-OP WINE SPIRITS BEER-KENSINGTON      ,77300100,2530 KENSINGTON ROAD NW                 ,CALGARY                                           ,AB,T2N 3S5   ,51.052609,-114.119298,(403) 229-9617  ,,,Liquor Store,                                        ,,,,,,,,,,,,,,,,,,,,False,False,False,False,False,False,False,False,False,,,,,,True,False,Liquor Store
50532,SOBEYS LIQUOR (COCHRANE)                ,77302100,3-75 BOW STREET                         ,COCHRANE                                          ,AB,T4C 0T4   ,51.18626,-114.46672,(403) 932-2075  ,https://liquor.sobeys.com/,,Liquor Store,swcb5035cochrane@sobeys.com             ,10:00am,10:00pm,10:00am,10:00pm,10:00am,10:00pm,9:00am,11:00pm,9:00am,11:00pm,9:00am,11:00pm,10:00am,10:00pm,,,,,"AMEX, Debit, MasterCard, Visa",False,False,False,False,False,False,False,False,False,False,,,,,True,False,Liquor Store
50534,REAL CANADIAN LIQUOR STORE EXPRESS      ,77302300,11403 KINGSWAY AVENUE                   ,EDMONTON                                          ,AB,T5G 3E8   ,53.564319,-113.518298,(780) 425-6557  ,,,Liquor Store,mon01691@loblaw.ca                      ,,,,,,,,,,,,,,,,,,,,False,False,False,False,False,False,False,False,False,,,,,,True,False,Liquor Store
50539,CHEERS LIQUOR STORE                     ,77304300,106 MAIN STREET                         ,FOREMOST                                          ,AB,T0K 0X0   ,49.478531,-111.441,(403) 867-2223  ,,,Liquor Store,cheersforemost@gmail.com                ,,,,,,,,,,,,,,,,,,,,False,False,False,False,False,False,False,False,False,,,,,,False,False,Liquor Store
50541,LIQUOR DEPOT AT STONEYCREEK             ,77305600,101-112 RIVERSTONE RIDGE                ,FORT MCMURRAY                                     ,AB,T9K 1S6   ,56.758845,-111.438714,(780) 743-6300  ,,,Liquor Store,1010021store@liquordepot.com            ,,,,,,,,,,,,,,,,,,,,False,False,False,False,False,False,False,False,False,False,,,,,True,False,Liquor Store
50545,RUSTY'S DOWNTOWN LIQUOR                 ,77308900,3-801 MAIN STREET                       ,CANMORE                                           ,AB,T1W 2B3   ,51.089092,-115.361209,(403) 678-4465  ,,,Liquor Store,jdesoto@telus.net                       ,12:00pm,12:00am,12:00pm,12:00am,12:00pm,12:00am,12:00pm,12:00am,12:00pm,12:00am,12:00pm,12:00am,12:00pm,12:00am,,,,,"cash, visa, mastercard, tap",True,True,True,False,False,False,False,True,False,False,,,,,False,False,Liquor Store
50547,TERWILLEGAR TOWN LIQUOR                 ,77309800,5231 TERWILLEGAR BOULEVARD NW           ,EDMONTON                                          ,AB,T6R 0C5   ,53.444525,-113.57816,(780) 439-3533  ,,,Liquor Store,baljinder000@hotmail.com                ,,,,,,,,,,,,,,,,,,,,False,False,False,False,False,False,False,False,False,,,,,,False,False,Liquor Store
50548,RITZY LIQUOR                            ,77310100,3-50 ELIZABETH STREET                   ,OKOTOKS                                           ,AB,T1S 1B1   ,50.725928,-113.977787,(587) 364-1112  ,,,Liquor Store,lkkl7579@gmail.com                      ,,,,,,,,,,,,,,,,,,,,False,False,False,False,False,False,False,False,False,,,,,,False,False,Liquor Store
50554,CROWFOOT WINE & SPIRITS- SUNSET RIDGE   ,77323300,3101-101 SUNSET  DRIVE                  ,COCHRANE                                          ,AB,T4C 0B4   ,51.213174,-114.470382,(403) 932-4104  ,crowfootliquor.com,,Liquor Store,                                        ,10:00am,10:00pm,10:00am,10:00pm,10:00am,10:00pm,10:00am,10:00pm,10:00am,11:00pm,10:00am,11:00pm,10:00am,10:00pm,,http://www.facebook.com/crowfootwineandspirits,https://twitter.com/CrowfootWine,,"AMEX, Debit, MasterCard, Visa, cash",False,True,False,False,True,False,False,True,False,False,,,,,True,False,Liquor Store
50558,DISCOUNT LIQUOR                         ,77313300,5-13651 ST ALBERT TRAIL NW              ,EDMONTON                                          ,AB,T5L 5E7   ,53.59846,-113.573425,(780) 451-8884  ,https://www.liquor137.ca,,Liquor Store,discountliquor137@gmail.com             ,9:00am,10:00pm,9:00am,10:00pm,9:00am,10:00pm,9:00am,10:00pm,9:00am,10:00pm,10:00am,10:00pm,10:00am,7:00pm," All our prices INCLUDE Tax and Deposits.

We are an independently owned liquor shop located on St. Albert Trail & 137 Ave., in Christy's Corner Plaza, just steps away from Cineplex Odeon. Come see us today!
Delivery: Skip The Dishes, Door Dash (Drivers*) , Uber Eats (Items*) 
*Issues

~~~~~~~{ DISCOUNTS }~~~~~~~
- Up to 20% off large orders
- 5% off* 6+ bottles & 10% off* 12+ bottles of Wine or Spirits
- 5% off* Seniors 65+, Military,  First Responders, & Front Line Response
- Large selection on Everyday low price items
* Regular price, Mix & Match

~~~~~~~{ NOTE }~~~~~~~
 NOT affiliated with ANY stores, ""Discount"", ""DEEP Discount""
 NO Flyers, AD & Price Match with proof, NOT guaranteed
 NO Returns or Exchange, unless BAD / Expired item (Note: BB is not EXP)
 Products & Prices are subject to change without notice

 18+ Adults Only, We ID under 25
 Please drink responsibly
 Don't Drink and Drive
 Don't drink while Pregnant or Expecting",https://www.facebook.com/liquor137,https://twitter.com/liquor137,,"Cash, Debit/ Credit Card, VISA, MC, AMEX, JCB, UnionPay",False,True,False,False,False,False,False,True,False,False,Theme 1,Come see us Today!,"We have an extensive selection of Wine, Beer, and Spirits as well as knowledgeable staff. 
We are a small & local family business and we appreciate your business. 
We are trying new things, so please let us know, if you have any suggestions.",True,False,False,Liquor Store
